id,parent_id,code,type,name,description,location,latitude,longitude
10000,NULL,,0,Центральная комиссия,"Дом Правительства, правое крыло","г. Минск, ул. Советская, 11",53.89618,27.546257
1,10000,1,1,ОИК 1,здание администрации Ленинского района г.Бреста кабинет 208,"г.Брест, ул.Ленина,13",52.0932375,23.6847892
2,1,1/1,2,Участок для голосования №1,"УО ""Брестский государственный музыкальный колледж им.г.Ширмы""","г.Брест, ул.Гоголя, 7",52.0895,23.6806
3,1,1/2,2,Участок для голосования №2,"УО ""Брестский государственный торгово-технологический колледж""","г.Брест, ул.Героев обороны Брестской крепости, 78",52.0913,23.6527
4,1,1/3,2,Участок для голосования №3,"УО ""Брестский государственный профессиональный лицей строителей""","г.Брест, ул.Пригородная, 27",52.0989,23.6524
5,1,1/4,2,Участок для голосования №4,"УО ""Брестское государственное областное училище олимпийского резерва""","г.Брест, ул.Пригородная, 27",52.0989,23.6524
6,1,1/5,2,Участок для голосования №5,"общежитие ОАО ""Брестский мясокомбинат""","г.Брест, ул.Смирнова, 21",52.0995,23.6497
7,1,1/6,2,Участок для голосования №6,"ГУО ""Средняя школа №5 г.Бреста""","г.Брест, ул.Смирнова, 63",52.1047,23.647
8,1,1/7,2,Участок для голосования №7,"ГУО ""Средняя школа №27 г.Бреста""","г.Брест, ул.Адамковская, 58/1",52.1049,23.651
9,1,1/8,2,Участок для голосования №8,"УП ""Брествторчермет""","г.Брест, ул.Бауманская, 40",52.1145,23.6463
10,1,1/9,2,Участок для голосования №9,"ОАО ""Брестхлебопродукт""","г.Брест, ул.Поплавского, 54",52.097516,23.663421
11,1,1/10,2,Участок для голосования №10,"КУП ""Брестский городской ремонтно-строительный трест""","г.Брест, ул.л-та Рябцева, 110",52.1393,23.6748
12,1,1/11,2,Участок для голосования №11,"ГУО ""Гимназия №5""","г.Брест, ул.Дубровская, 14",52.128,23.6527
13,1,1/12,2,Участок для голосования №12,"ГУО ""Средняя школа №33 г.Бреста""","г.Брест, ул.Белорусская, 64",52.1197,23.6567
14,1,1/13,2,Участок для голосования №13,"ГУО ""Ясли-сад №36 г.Бреста""","г.Брест, ул.Дубровская,15",52.1275,23.6564
15,1,1/14,2,Участок для голосования №14,"ГУО ""Средняя школа №8 г.Бреста им.Героя Беларуси В.Н.Карвата""","г.Брест, ул.Железнодорожная, 16",52.100836,23.670469
16,1,1/15,2,Участок для голосования №15,"ГУО ""Средняя школа №13 г.Бреста им.В.И.Хована""","г.Брест, пр.Машерова,33",52.086178,23.699847
17,1,1/16,2,Участок для голосования №16,"ГУО ""Брестский областной лицей им.П.М.Машерова""","г.Брест, пр.Машерова, 25",52.0853,23.6988
18,1,1/17,2,Участок для голосования №17,"ГУО ""Средняя школа №18 г.Бреста""","г.Брест, ул.Ленина, 70",52.0886,23.6872
19,1,1/18,2,Участок для голосования №18,Клуб связи,"г.Брест, ул.Советских пограничников, 31",52.0868,23.691
20,1,1/19,2,Участок для голосования №19,"Общежитие УО ""БрГУ им.А.С.Пушкина""","г.Брест, ул.Дзержинского, 3",52.0883,23.6884
21,1,1/20,2,Участок для голосования №20,"ГУО ""Средняя школа №20 г.Бреста""","г.Брест, ул.Карбышева, 81",52.0907,23.6983
22,1,1/21,2,Участок для голосования №21,"ГУО ""Средняя школа №20 г.Бреста""","г.Брест, ул.Карбышева, 81",52.0907,23.6983
23,1,1/22,2,Участок для голосования №22,"Общежитие №1 Брестского колледжа – филиала УО ""Белорусский государственный университет транспорта""","г.Брест, ул.Гоголя, 63",52.0932,23.6971
24,1,1/23,2,Участок для голосования №23,"Ресурсный центр УО ""Брестский государственный торгово-технологический колледж""","г.Брест, ул.Карбышева, 31",52.0963,23.6944
25,1,1/24,2,Участок для голосования №24,Брестское областное объединение профсоюзов,"г.Брест, ул.К.Маркса, 19",52.0949,23.6854
26,1,1/25,2,Участок для голосования №25,"ГУО ""Ясли-сад №79 г.Бреста""","г.Брест, ул.Березовская, 7",52.1131,23.729
27,1,1/26,2,Участок для голосования №26,"УО ""БрГУ им.А.С.Пушкина""","г.Брест, б-р Космонавтов, 21",52.0983,23.6942
28,1,1/27,2,Участок для голосования №27,"ГУ ""Брестская областная филармония""","г.Брест, ул.Орджоникидзе, 14",52.0995,23.6858
29,1,1/28,2,Участок для голосования №28,"Дом культуры транспортного РУП ""Брестское отделение Бел.ж.д.""","г.Брест, ул.Кижеватова, 9/1",52.1007,23.6779
30,1,1/29,2,Участок для голосования №29,"ГУО ""Средняя школа №17 г.Бреста""","г.Брест, ул.Северная, 20",52.1095,23.6789
31,1,1/30,2,Участок для голосования №30,"Филиал РУП ""Брестэнерго"" Брестские электрические сети","г.Брест, ул.Красногвардейская, 92",52.1178,23.6878
32,1,1/31,2,Участок для голосования №31,"ГП ""Брестводоканал""","г.Брест, ул.Красногвардейская, 125",52.1227,23.6955
33,1,1/32,2,Участок для голосования №32,"ГУО ""Средняя школа №16 г.Бреста""","г.Брест, ул.Красногвардейская, 59",52.1117,23.6862
34,1,1/33,2,Участок для голосования №33,Брестская дистанция пути,"г.Брест, пер.Фортечный, 12",52.1079,23.7057
35,1,1/34,2,Участок для голосования №34,"ГУО ""Средняя школа №32 г.Бреста""","г.Брест, ул.Строительная, 21",52.1135,23.7311
36,1,1/35,2,Участок для голосования №35,"ГУО ""Средняя школа №32 г.Бреста""","г.Брест, ул.Строительная, 21",52.1135,23.7311
37,1,1/36,2,Участок для голосования №36,"ГУО ""Гимназия №3 г.Бреста""","г.Брест, ул.Смирнова, 63",52.1047,23.647
38,1,1/37,2,Участок для голосования №37,"УЗ ""Брестская городская больница №2""","г.Брест, ул.Школьная, 8",52.1038,23.6441
39,1,1/38,2,Участок для голосования №38,"УЗ ""Брестская городская больница СМП""","г.Брест, ул.Ленина, 15",52.0923,23.6856
40,1,1/39,2,Участок для голосования №39,"УЗ ""Брестская городская больница №1""","г.Брест, ул.Кижеватова, 76",52.1066,23.6908
41,1,1/40,2,Участок для голосования №40,"ГУО ""Гимназия №5""","г.Брест, ул.Дубровская, 14",52.128,23.6527
42,1,1/41,2,Участок для голосования №41,"Филиал СМУ-1 ОАО ""Белсельэлектрострой""","г.Брест, ул.Красногвардейская, 112/1",52.126506,23.698341
43,1,1/42,2,Участок для голосования №42,"Торговый центр ""Вам Рад""","г.Брест, ул.Старозадворская, 4",52.1216,23.7723
44,1,1/43,2,Участок для голосования №43,"ГУО ""Средняя школа №33 г.Бреста""","г.Брест, ул.Белорусская, 64",52.1197,23.6567
45,1,1/44,2,Участок для голосования №44,"ГУО ""Средняя школа №9 г.Бреста""","г.Брест, ул.Наганова, 3",52.0904,23.6784
46,10000,2,1,ОИК 2,здание администрации Московского района г.Бреста кабинет 85,"г.Брест, ул.Московская, 273",52.0987962,23.7666591
47,46,2/1,2,Участок для голосования №1,"общежитие №10 КУП ""ЖРЭУ г.Бреста""","г.Брест, ул.Краснознамённая, 5",52.0877,23.7163
48,46,2/2,2,Участок для голосования №2,административное здание,"г.Брест, б-р Шевченко, 4",52.0864,23.7043
49,46,2/3,2,Участок для голосования №3,административное здание,"г.Брест, б-р Шевченко, 4",52.0864,23.7043
50,46,2/4,2,Участок для голосования №4,"ГУО ""Средняя школа №15 г.Бреста""","г.Брест, пр.Машерова, 55",52.0874,23.7063
51,46,2/5,2,Участок для голосования №5,"ГУО ""Средняя школа №15 г.Бреста""","г.Брест, пр.Машерова, 55",52.0874,23.7063
52,46,2/6,2,Участок для голосования №6,"УО ""Брестский государственный колледж связи""","г.Брест, ул.Кирова, 82",52.0908,23.7046
53,46,2/7,2,Участок для голосования №7,"УО ""Брестский государственный колледж связи""","г.Брест, ул.Кирова, 82",52.0908,23.7046
54,46,2/8,2,Участок для голосования №8,"ГУО ""Средняя школа №19 г.Бреста""","г.Брест, ул.Сикорского, 86",52.0923,23.7181
55,46,2/9,2,Участок для голосования №9,"УЗ ""Брестский областной родильный дом""","г.Брест, ул.Кирова, 62",52.0926,23.7043
56,46,2/10,2,Участок для голосования №10,"ГУО ""Средняя школа №3 г.Бреста""","г.Брест, б-р Космонавтов, 60",52.0966,23.6979
57,46,2/11,2,Участок для голосования №11,"ГУО ""Средняя школа №7 г.Бреста""","г.Брест, ул.Горького, 20",52.1005,23.6985
58,46,2/12,2,Участок для голосования №12,"Брестский колледж-филиал УО ""Белорусский государственный университет транспорта""","г.Брест, ул.Пушкинская, 65",52.0995,23.7017
59,46,2/13,2,Участок для голосования №13,"УО ""Брестский областной эколого-биологический центр учащихся""","г.Брест, ул.Тихая, 4/1",52.105,23.7106
60,46,2/14,2,Участок для голосования №14,"ГУО ""Средняя школа №6 г.Бреста""","г.Брест, ул.Панфиловцев, 22",52.1004,23.7152
61,46,2/15,2,Участок для голосования №15,"Общежитие ОАО ""Ковры Бреста""","г.Брест, ул.Высокая, 22/1",52.0976,23.7238
62,46,2/16,2,Участок для голосования №16,"Общежитие №20 КУП ""ЖРЭУ г.Бреста""","г.Брест, ул.Пионерская, 77",52.0977,23.7296
63,46,2/17,2,Участок для голосования №17,"Общежитие №4 ОАО ""Строительный трест №8""","г.Брест, ул.Пионерская, 46/1",52.1013,23.726
64,46,2/18,2,Участок для голосования №18,"УО ""Брестский государственный профессионально-технический колледж приборостроения""","г.Брест, ул.Я.Купалы, 6/1",52.101576,23.727763
65,46,2/19,2,Участок для голосования №19,"ГУО ""Брестский областной институт развития образования""","г.Брест, ул.Я.Купалы, 20/1",52.10588,23.73139
66,46,2/20,2,Участок для голосования №20,"ГУО ""Средняя школа №22 г.Бреста""","г.Брест, ул.Я.Купалы, 20",52.10455,23.733143
67,46,2/21,2,Участок для голосования №21,"ГУО ""Средняя школа №31 г.Бреста""","г.Брест, ул.Я.Купалы, 30/1",52.1063,23.7342
68,46,2/22,2,Участок для голосования №22,"УО ""Брестский профессиональный лицей лёгкой промышленности""","г.Брест, ул.Я.Купалы, 52",52.106,23.7333
69,46,2/23,2,Участок для голосования №23,"Общежитие ОАО ""Брестский электроламповый завод""","г.Брест, ул.Молодогвардейская, 6",52.1044,23.7526
70,46,2/24,2,Участок для голосования №24,"Общежитие СП ""Веставто"" ОАО","г.Брест, ул.Я.Купалы, 111/1",52.109444,23.75295
71,46,2/25,2,Участок для голосования №25,"Общежитие ОАО ""Савушкин продукт""","г.Брест, ул.Я.Купалы, 115",52.110142,23.756894
72,46,2/26,2,Участок для голосования №26,"ГУО ""Средняя школа №24 г.Бреста""","г.Брест, ул.Ленинградская, 11",52.1091,23.7622
73,46,2/27,2,Участок для голосования №27,"ГУО ""Средняя школа №24 г.Бреста""","г.Брест, ул.Ленинградская, 11",52.1091,23.7622
74,46,2/28,2,Участок для голосования №28,"общежитие №17 КУП ""ЖРЭУ г.Бреста""","г.Брест, ул.Советской Конституции, 21",52.1059,23.7538
75,46,2/29,2,Участок для голосования №29,"ГУО ""Гимназия №2 г.Бреста""","г.Брест, ул.Московская, 332/5",52.0998,23.7612
76,46,2/30,2,Участок для голосования №30,"ГУО ""Гимназия №2 г.Бреста""","г.Брест, ул.Московская, 332/5",52.0998,23.7612
77,46,2/31,2,Участок для голосования №31,"ГУО ""Средняя школа №10 г.Бреста""","г.Брест, ул.Кривошеина, 7",52.1018,23.7556
78,46,2/32,2,Участок для голосования №32,"ГУО ""Средняя школа №23 г.Бреста""","г.Брест, ул.Орловская, 16",52.1067,23.7663
79,46,2/33,2,Участок для голосования №33,"ГУО ""Средняя школа №23 г.Бреста""","г.Брест, ул.Орловская, 16",52.1067,23.7663
80,10000,3,1,ОИК 3,здание администрации Московского района г.Бреста кабинет 43,"г.Брест, ул.Московская, 273",52.0987962,23.7666591
81,80,3/1,2,Участок для голосования №1,"Кафе ""Зодчие""","г.Брест, ул.Московская, 267",52.095815,23.757934
82,80,3/2,2,Участок для голосования №2,"УО ""Брестский государственный технический университет""","г.Брест, ул.Московская, 267 корп.1",52.093005,23.761787
83,80,3/3,2,Участок для голосования №3,"УО ""Брестский государственный технический университет""","г.Брест, ул.Московская, 267 корп.Б",52.095815,23.757934
84,80,3/4,2,Участок для голосования №4,"ГУО ""Гимназия №4 г.Бреста""","г.Брест, ул.Московская, 338/4",52.1042,23.7654
85,80,3/5,2,Участок для голосования №5,"ГУО ""Гимназия №4 г.Бреста""","г.Брест, ул.Московская, 338/4",52.1042,23.7654
86,80,3/6,2,Участок для голосования №6,"ГУО ""Средняя школа №12 г.Бреста им.К.Л.Губаревича""","г.Брест, ул.Московская, 346/6",52.105,23.7715
87,80,3/7,2,Участок для голосования №7,"ГУО ""Средняя школа №12 г.Бреста им.К.Л.Губаревича""","г.Брест, ул.Московская, 346/6",52.105,23.7715
88,80,3/8,2,Участок для голосования №8,"ГУО ""Средняя школа №26 г.Бреста""","г.Брест, ул.Ленинградская, 41",52.1113,23.7782
89,80,3/9,2,Участок для голосования №9,"ГУО ""Средняя школа №26 г.Бреста""","г.Брест, ул.Ленинградская, 41",52.1113,23.7782
90,80,3/10,2,Участок для голосования №10,"ГУО ""Средняя школа №29 г.Бреста""","г.Брест, ул.Орловская, 33",52.1069,23.7787
91,80,3/11,2,Участок для голосования №11,"ГУО ""Средняя школа №29 г.Бреста""","г.Брест, ул.Орловская, 33",52.1069,23.7787
92,80,3/12,2,Участок для голосования №12,"ГУО ""Средняя школа №28 г.Бреста""","г.Брест, ул.Орловская, 48",52.1094,23.7798
93,80,3/13,2,Участок для голосования №13,"ГУО ""Средняя школа №28 г.Бреста""","г.Брест, ул.Орловская, 48",52.1094,23.7798
94,80,3/14,2,Участок для голосования №14,"ГУО ""Лицей №1 им.А.С.Пушкина г.Бреста""","г.Брест, ул.Орловская, 63",52.1078,23.783
95,80,3/15,2,Участок для голосования №15,"ГУО ""Учебно-педагогический комплекс ясли-сад-начальная школа №6""","г.Брест, ул.Лактионова, 22",52.1001,23.7844
96,80,3/16,2,Участок для голосования №16,"УЗ ""Брестская центральная городская больница""","г.Брест, ул.Лактионова, 11",52.0977,23.7851
97,80,3/17,2,Участок для голосования №17,"УЗ ""Брестская центральная городская больница""","г.Брест, ул.Лактионова, 11",52.0977,23.7851
98,80,3/18,2,Участок для голосования №18,"общежитие УО ""Брестский государственный медицинский колледж""","г.Брест, ул.Медицинская, 15",52.1072,23.82
99,80,3/19,2,Участок для голосования №19,"УЗ ""Брестская областная больница""","г.Брест, ул.Медицинская, 7",52.1066,23.8157
100,80,3/20,2,Участок для голосования №20,"УЗ ""Брестский областной кожно-венерологический диспансер""","г.Брест, ул.Медицинская, 11",52.106771,23.817723
101,80,3/21,2,Участок для голосования №21,"УЗ ""Брестский областной противотуберкулезный диспансер""","г.Брест, ул.Медицинская, 9",52.1055,23.8182
102,80,3/22,2,Участок для голосования №22,"УЗ ""Брестский областной онкологический диспансер""","г.Брест, ул.Медицинская, 6",52.103456,23.81042
103,80,3/23,2,Участок для голосования №23,ДРСУ-138,"г.Брест, ул.Вычулки, 117",52.0961,23.8123
104,80,3/24,2,Участок для голосования №24,"ГУО ""Учебно-педагогический комплекс детский сад-начальная школа №3""","г.Брест, ул.Волгоградская, 5",52.0744,23.7579
105,80,3/25,2,Участок для голосования №25,"ГУО ""УПК ясли- сад – начальная школа №11 г.Бреста""","г.Брест, ул.Октябрьской революции, 47",52.080817,23.759473
106,80,3/26,2,Участок для голосования №26,"ГУО ""Средняя школа №25 г.Бреста""","г.Брест, ул.Волгоградская,7",52.0745,23.7589
107,80,3/27,2,Участок для голосования №27,"ГУО ""Средняя школа №25 г.Бреста""","г.Брест, ул.Волгоградская, 7",52.0745,23.7589
108,80,3/28,2,Участок для голосования №28,"Общежитие №12 КУП ""ЖРЭУ г.Бреста""","г.Брест, ул.Суворова, 112",52.0724,23.761
109,80,3/29,2,Участок для голосования №29,"Общежитие ОАО ""Брестмаш""","г.Брест, ул.Суворова, 104",52.0721,23.7575
110,80,3/30,2,Участок для голосования №30,"общежитие №14 КУП ""ЖРЭУ г.Бреста""","г.Брест, ул.Суворова, 108",52.0722,23.7593
111,80,3/31,2,Участок для голосования №31,"СКБ ""Запад""","г.Брест, ул.Суворова, 96/1",52.0718,23.7522
112,80,3/32,2,Участок для голосования №32,"ГУО ""Средняя школа №30 им.Д.Б.Гвишиани г.Бреста""","г.Брест, ул.Волгоградская, 42",52.0799,23.7499
113,80,3/33,2,Участок для голосования №33,"ГУО ""Средняя школа №30 им.Д.Б.Гвишиани г.Бреста""","г.Брест, ул.Волгоградская, 42",52.0799,23.7499
114,80,3/34,2,Участок для голосования №34,"ГУО ""Учебно-педагогический комплекс детский сад- начальная школа №7""","г.Брест, ул.Луцкая, 36 ""А""",52.07789,23.748536
115,80,3/35,2,Участок для голосования №35,"ГУО ""Средняя школа №35 г.Бреста""","г.Брест, ул.28 Июля, 43",52.079228,23.743932
116,80,3/36,2,Участок для голосования №36,"ГУО ""Средняя школа №35 г.Бреста""","г.Брест, ул.28 Июля, 43",52.0788,23.7391
117,80,3/37,2,Участок для голосования №37,ЖЭС №11,"г.Брест, ул.Луцкая, 10",52.078408,23.743879
118,80,3/38,2,Участок для голосования №38,"ГУО ""Ясли-сад №70 г.Бреста""","г.Брест, ул.Волгоградская, 20",52.0745,23.753
119,10000,4,1,ОИК 4,административное здание Брестского РИК кабинет 19,"г.Брест, ул.Коммунистическая, 23",52.0887539,23.684234
120,119,4/1,2,Лыщицкий участок для голосования №1,"здание сельского Дома культуры, д.Новые Лыщицы","д.Новые Лыщицы, ул.Юбилейная, 6 А",52.2595,23.5005
121,119,4/2,2,Остромечевский участок для голосования №2,"здание сельского Дома культуры, аг.Остромечево","аг.Остромечево, пл.Октябрьская, 2А",52.2667,23.5886
122,119,4/3,2,Малозводский участок для голосования №3,"здание ГУО ""УПК детский сад-базовая школа д.Малые Зводы""","д.Малые Зводы, ул.Центральная, 47",52.3039,23.4799
123,119,4/4,2,Яцковичский участок для голосования №4,здание сельского клуба-библиотеки,"д.Яцковичи, ул.Центральная, 8/1",52.2607,23.4198
124,119,4/5,2,Мотыкальский участок для голосования №5,"здание сельского Дома культуры, аг.Большие Мотыкалы","аг.Большие Мотыкалы, ул.Центральная, 17/1",52.1971,23.5864
125,119,4/6,2,Скоковский участок для голосования №6,"здание сельского Дома культуры, д.Скоки","д.Скоки, ул.Мира, 46",52.1557,23.6379
126,119,4/7,2,Ковердякский участок для голосования №7,"здание сельского Дома культуры, д.Ковердяки","д.Ковердяки, ул.40 лет Победы, 15",52.1753,23.6602
127,119,4/8,2,Сычевский участок для голосования №8,"здание сельского клуба, д.Вельямовичи","д.Вельямовичи, ул.Садовая, 1Б",52.2218,23.4525
128,119,4/9,2,Клейниковский участок для голосования №9,"здание сельского Дома культуры, аг.Клейники","аг.Клейники, ул.60 лет Октября, 1/2",52.1404,23.6077
129,119,4/10,2,Теребуньский участок для голосования №10,"здание сельского клуба, д.Теребунь","д.Теребунь, ул.Западная, 4/11",52.167826,23.527961
130,119,4/11,2,Чернавчицкий участок для голосования №11,"здание сельского Дома культуры, аг.Чернавчицы","аг.Чернавчицы, ул.Сикорского, 22",52.2112,23.7445
131,119,4/12,2,Покрский участок для голосования №12,"здание сельского клуба, д.Покры","д.Покры, ул.Северная, 2 А",52.2546,23.6657
132,119,4/13,2,Омелинский участок для голосования №13,"здание сельского клуба-библиотеки, д.Омелинно","д.Омелинно, ул.Брестская, 21",52.224997,23.780364
133,119,4/14,2,Вистычский участок для голосования №14,"здание сельского Дома культуры, аг.Вистычи","аг.Вистычи, ул.Новая, 1",52.202472,23.678032
134,119,4/15,2,Чернинский участок для голосования №15,здание Брестского районного Дома культуры,"аг.Черни, ул.Пионерская, 16",52.1495,23.7512
135,119,4/16,2,Збироговский участок для голосования №16,"здание фельдшерско-акушерского пункта, д.Збироги","д.Збироги, ул.Низкая, 10А",52.1637,23.8756
136,119,4/17,2,Тельминский участок для голосования №17,административное здание Тельминского сельского исполнительного комитета,"д.Тельмы-1 ул.Депутатская, 2",52.1158,23.8303
137,119,4/18,2,Радваничский участок для голосования №18,"здание сельского Дома культуры, аг.Большие Радваничи","аг.Большие Радваничи, ул.Центральная, 66",52.0339,24.0053
138,119,4/19,2,Мухавецкий участок для голосования №19,"здание сельского Дома культуры, аг.Мухавец","аг.Мухавец, ул.60 лет Октября, 23",52.0281,23.8046
139,119,4/20,2,Каменица-Жировецкий участок для голосования №20,"здание фельдшерско-акушерского пункта, д.Каменица-Жировецкая","д.Каменица-Жировецкая, ул.Советская, 40",52.0938,23.6927
140,119,4/21,2,Прилукский участок для голосования №21,"здание ГУО ""Начальная школа д.Прилуки""","д.Прилуки, ул.60 лет БССР, 30/1",51.9936,23.7006
141,119,4/22,2,Страдечский участок для голосования №22,"здание сельского Дома культуры, аг.Страдечь","аг.Страдечь, ул.Александрова, 60",51.927163,23.659723
142,119,4/23,2,Меднянский участок для голосования №23,"здание ГУО ""Средняя школа д.Медно""","аг.Медно, ул.Республиканская, 71",51.862883,23.751177
143,119,4/24,2,Знаменский участок для голосования №24,здание Знаменского сельского исполнительного комитета,"аг.Знаменка, ул.Юбилейная, 13",51.882569,23.654167
144,119,4/25,2,Рогознянский участок для голосования №25,"здание фельдшерско-акушерского пункта, д.Рогозно","д.Рогозно, ул.Центральная, 12 Б",51.826079,23.784343
145,119,4/26,2,Санаторный участок для голосования №26,"административное здание ОАО ""Санаторно-курортная организация ""Брестагроздравница""",п.Берестье,52.0799,23.6546
146,119,4/27,2,Домачевский участок для голосования №27,"здание поселкового Дома культуры, г.п.Домачево","г.п.Домачево, ул.Ленина, 12",51.7472,23.5933
147,119,4/28,2,Леплёвский участок для голосования №28,"здание сельского клуба, д.Леплёвка","д.Леплёвка, ул.Широкая, 11/1",51.7613,23.6609
148,119,4/29,2,Подлужский участок для голосования №29,"здание сельского клуба-библиотеки, д.Шикили","д.Шикили, ул.Зелёная, 10",51.7281,23.5739
149,119,4/30,2,Дубокский участок для голосования №30,"здание сельского клуба-библиотеки, д.Дубок","д.Дубок, ул.Новая, 3",51.665993,23.7026
150,119,4/31,2,Приборовский участок для голосования №31,"здание сельского клуба-библиотеки, д.Приборово","д.Приборово, ул.Шоссейная, 28",51.633308,23.574152
151,119,4/32,2,Томашовский участок для голосования №32,административное здание Томашовского сельского исполнительного комитета,"аг.Томашовка, ул.Гагарина, 19",51.559187,23.602848
152,119,4/33,2,Участок для голосования №33,"ГУО ""Средняя школа №1 г.Бреста""","г.Брест, ул.Колесника, 6",52.0747,23.7241
153,119,4/34,2,Участок для голосования №34,"ГУО ""Учебно-педагогический комплекс ясли – сад №73 г.Бреста""","г.Брест, ул.Колесника, 13",52.0735,23.7267
154,119,4/35,2,Участок для голосования №35,"Магазин ""Евроопт""","г.Брест, Варшавское шоссе,11",52.0751,23.7181
155,119,4/36,2,Участок для голосования №36,"ГУО ""Средняя школа №11""","г.Брест, ул.Сальникова, 33",52.0719,23.7049
156,119,4/37,2,Участок для голосования №37,"ГУДО ""Ясли-сад №7 г.Бреста""","г.Брест, ул.Генерала Благовещенского, 6",52.068,23.6982
157,119,4/38,2,Участок для голосования №38,"ГУО ""Средняя школа №14 им.Е.М.Фомина г.Бреста""","г.Брест, ул.Рябиновая, 10",52.0677,23.7295
158,119,4/39,2,Участок для голосования №39,"ГУО ""Средняя школа №14 им.Е.М.Фомина г.Бреста""","г.Брест, ул.Рябиновая, 10",52.0677,23.7295
159,119,4/40,2,Участок для голосования №40,"ГУО ""Средняя школа №37 г.Бреста""","г.Брест, ул.Рябиновая, 12",52.0688,23.7287
160,119,4/41,2,Участок для голосования №41,"ГУО ""Средняя школа №37 г.Бреста""","г.Брест, ул.Рябиновая, 12",52.0688,23.7287
161,119,4/42,2,Участок для голосования №42,"ГУО ""Ясли – сад №72 г.Бреста""","г.Брест, ул.Сябровская, 60",52.0674,23.7272
162,119,4/43,2,Участок для голосования №43,"ГУО ""Гимназия №6 г.Бреста им.Маршала Советского Союза Жукова Г.К.""","г.Брест, ул.Суворова, 1",52.061,23.7372
163,119,4/44,2,Участок для голосования №44,"ГУО ""Гимназия №6 г.Бреста им.Маршала Советского Союза Жукова Г.К.""","г.Брест, ул.Суворова, 1",52.061,23.7372
164,119,4/45,2,Участок для голосования №45,Войсковая часть 92616,"г.Брест, в/ч 92616",52.0997,23.7637
165,119,4/46,2,Участок для голосования №46,"ГУК ""Центр культуры и досуга г.Бреста""","г.Брест, ул.Жукова,1",52.0625,23.7328
166,119,4/47,2,Участок для голосования №47,"ГУО ""Учебно-педагогический комплекс ясли-сад – начальная школа №10 г.Бреста""","г.Брест, ул.Защитников Отечества, 1А",52.056664,23.737157
167,119,4/48,2,Участок для голосования №48,"СООО ""Брестсталь""","г.Брест, ул.Учительская, 41/1",52.0443,23.6993
168,119,4/49,2,Участок для голосования №49,"ГУО ""Средняя школа №4 г.Бреста""","г.Брест, ул.Волынская, 26",52.0657,23.6896
169,10000,5,1,ОИК 5,административное здание Барановичского ГИК кабинет 103,"г.Барановичи, пл.Ленина, 2",53.1324947,26.0187692
170,169,5/1,2,Участок для голосования №1,"Актовый зал дистанции электроснабжения ТРУП ""Барановичское отделение Белорусской железной дороги""","г.Барановичи, ул.Железнодорожная, 1а",53.122347,25.973768
171,169,5/2,2,Участок для голосования №2,"Клуб дистанции пути ТРУП ""Барановичское отделение Белорусской железной дороги""","г.Барановичи, ул.Гастелло, 23",53.1302,25.9846
172,169,5/3,2,Участок для голосования №3,"ГУО ""Средняя школа №12 г.Барановичи""","г.Барановичи, ул.Глинки, 14",53.1363,25.989
173,169,5/4,2,Участок для голосования №4,"ГУО ""Средняя школа №12 г.Барановичи""","г.Барановичи, ул.Глинки, 14",53.1363,25.989
174,169,5/5,2,Участок для голосования №5,"Клуб ОАО ""Барановичский завод станкопринадлежностей""","г.Барановичи, ул.Пролетарская,40",53.147,26.0146
175,169,5/6,2,Участок для голосования №6,"ГУО ""Лицей №1 г.Барановичи""","г.Барановичи, пр.Советский, 33",53.147059,26.006619
176,169,5/7,2,Участок для голосования №7,Филиал №4 Центральной библиотечной системы г.Барановичи,"г.Барановичи, пр.Советский, 21",53.1521,26
177,169,5/8,2,Участок для голосования №8,"ГУО ""Средняя школа №19 г.Барановичи""","г.Барановичи, ул.Жукова 12/6",53.1537,26.0053
178,169,5/9,2,Участок для голосования №9,"ГУО ""Средняя школа №19 г.Барановичи""","г.Барановичи, ул.Жукова 12/6",53.1537,26.0053
179,169,5/10,2,Участок для голосования №10,"ГУО ""Детская музыкальная школа №3""","г.Барановичи, ул.Жукова, 10/5",53.1531,26.0074
180,169,5/11,2,Участок для голосования №11,"ГУО ""Средняя школа №18 г.Барановичи""","г.Барановичи, б-р Бородинского, 7/2",53.1535,26.0091
181,169,5/12,2,Участок для голосования №12,"ГУО ""Средняя школа №18 г.Барановичи""","г.Барановичи, б-р Бородинского, 7/2",53.1535,26.0091
182,169,5/13,2,Участок для голосования №13,"ГУО ""Детская музыкальная школа искусств г.Барановичи""","г.Барановичи, ул.Горького, 20",53.1327,26.0064
183,169,5/14,2,Участок для голосования №14,"Общежитие ОАО ""Строительный трест №25""","г.Барановичи, ул.Пионерская, 31",53.1296,26.0035
184,169,5/15,2,Участок для голосования №15,"ГУО ""Средняя школа №21 г.Барановичи""","г.Барановичи, ул.50 лет ВЛКСМ, 40",53.1123,26.0189
185,169,5/16,2,Участок для голосования №16,"Здание заочного отделения УО ""Барановичский государственный университет""","г.Барановичи, ул.Маяковского, 11",53.127317,26.016763
186,169,5/17,2,Участок для голосования №17,"Общежитие УО ""Барановичский государственный колледж легкой промышленности им.В.Е.Чернышева""","г.Барановичи, ул.Советская, 134",53.1237,26.0231
187,169,5/18,2,Участок для голосования №18,"ГУМУ ""Учебно-методический кабинет г.Барановичи""","г.Барановичи, ул.Куйбышева, 55",53.1258,26.0081
188,169,5/19,2,Участок для голосования №19,"ГУО ""Средняя школа №16 г.Барановичи""","г.Барановичи, ул.Коммунистическая, 8",53.1183,26.0235
189,169,5/20,2,Участок для голосования №20,"Зал заседаний ОАО ""Барановичский автоагрегатный завод""","г.Барановичи, ул.Гагарина, 62",53.1214,26.0191
190,169,5/21,2,Участок для голосования №21,"ГУО ""Средняя школа №21 г.Барановичи""","г.Барановичи, ул.50 лет ВЛКСМ, 40",53.1123,26.0189
191,169,5/22,2,Участок для голосования №22,"ГУО ""Средняя школа №10 г.Барановичи""","г.Барановичи, ул.50 лет ВЛКСМ, 22",53.1147,26.0271
192,169,5/23,2,Участок для голосования №23,"Клуб ОАО ""Торгмаш""","г.Барановичи, ул.Чернышевского, 61",53.1217,26.0066
193,169,5/24,2,Участок для голосования №24,"ГУО ""Средняя школа №14 г.Барановичи""","г.Барановичи, ул.Пионерская 98",53.1267,25.9904
194,169,5/25,2,Участок для голосования №25,"Филиал ""Строительно-монтажный поезд №760 на станции Барановичи"" ОАО ""Дорстроймонтажтрест""","г.Барановичи, ул.Брестская, 230",53.1211,25.982
195,169,5/26,2,Участок для голосования №26,"Административный корпус ОАО ""Барановичский молочный комбинат""","г.Барановичи, ул.50 лет БССР, 51",53.1153,25.9949
196,169,5/27,2,Участок для голосования №27,"ГУО ""Средняя школа №4 г.Барановичи""","г.Барановичи, ул.Демьяна Бедного, 47",53.1176,25.9797
197,169,5/28,2,Участок для голосования №28,"ГУО ""Гимназия №5 г.Барановичи""","г.Барановичи, ул.Тексер, 12",53.10748,25.97544
198,169,5/29,2,Участок для голосования №29,"Учебный корпус УО ""Барановичский государственный профессиональный лицей строителей""","г.Барановичи, ул.Брестская, 291",53.108,25.9651
199,169,5/30,2,Участок для голосования №30,"Общежитие УО ""Барановичский государственный профессиональный лицей строителей""","г.Барановичи, ул.Брестская, 291",53.108,25.9651
200,169,5/31,2,Участок для голосования №31,"ГУО ""Средняя школа №3 г.Барановичи""","г.Барановичи, ул.Колхозная, 64",53.1202,25.9591
201,169,5/32,2,Участок для голосования №32,"ГУО ""Средняя школа №3 г.Барановичи""","г.Барановичи, ул.Колхозная, 64",53.1202,25.9591
202,169,5/33,2,Участок для голосования №33,"Филиал ""Дорожно-строительное управление №22"" ОАО ""Дорожно-строительный трест №4 г.Брест""","г.Барановичи, ул.Вильчковского, 202",53.1334,25.9582
203,169,5/34,2,Участок для голосования №34,При онкологическом диспансере,"г.Барановичи, ул.Слонимское шоссе, 4",53.1117,25.9544
204,169,5/35,2,Участок для голосования №35,При стационарном наркологическом отделении Барановичского межрайонного наркологического диспансера,"г.Барановичи, ул.Слонимское шоссе, 6",53.1112,25.9533
205,169,5/36,2,Участок для голосования №36,"При УЗ ""Барановичская городская больница №2""","г.Барановичи, ул.Слонимское шоссе, 8",53.11,25.9504
206,169,5/37,2,Участок для голосования №37,"При УЗ ""Барановичская городская больница""","г.Барановичи, ул.Брестская, 133",53.1298,25.9958
207,169,5/38,2,Участок для голосования №38,"При УЗ ""Барановичский родильный дом""","г.Барановичи, ул.Гагарина, 10",53.1318,26.0139
208,169,5/39,2,Участок для голосования №39,"ГУДО ""Ясли-сад №8 г.Барановичи""","г.Барановичи, ул.Ивана Андреева, 1",53.111228,25.993026
209,169,5/40,2,Участок для голосования №40,"ГУО ""Гимназия №5 г.Барановичи""","г.Барановичи, ул.Тексер, 12",53.10748,25.97544
210,10000,6,1,ОИК 6,административное здание Барановичского ГИК кабинет 210,"г.Барановичи, ул.Советская, 79",53.1299084,26.0189935
211,210,6/1,2,Участок для голосования №1,"Общежитие КУРЭП ЖРЭУ ""Жилищное ремонтно-эксплуатационное управление г.Барановичи""","г.Барановичи, ул.Промышленная, 11а-1",53.153613,26.017954
212,210,6/2,2,Участок для голосования №2,"Филиал РУП ""Брестэнерго"" Барановичские электрические сети","г.Барановичи, ул.Пролетарская, 175",53.153077,26.027999
213,210,6/3,2,Участок для голосования №3,"ГУК ""Дворец культуры г.Барановичи""","г.Барановичи, ул.Кирова, 62",53.147,26.0416
214,210,6/4,2,Участок для голосования №4,"УО ""Барановичский государственный профессионально-технический колледж сферы обслуживания""","г.Барановичи, ул.Кирова, 50",53.1436,26.0452
215,210,6/5,2,Участок для голосования №5,"Дом культуры железнодорожников ТРУП ""Барановичское отделение Белорусской железной дороги""","г.Барановичи, ул.Клубная, 6",53.1352,26.0415
216,210,6/6,2,Участок для голосования №6,"Барановичская городская поликлиника №2 УЗ ""Барановичская центральная поликлиника""","г.Барановичи, ул.Фабричная, 6",53.1468,26.046
217,210,6/7,2,Участок для голосования №7,"ГУО ""Гимназия №3 г.Барановичи""","г.Барановичи, ул.Фабричная, 14а",53.1471,26.0523
218,210,6/8,2,Участок для голосования №8,"ГУО ""Средняя школа №15 г.Барановичи""","г.Барановичи, ул.Гаевая, 59",53.1506,26.0618
219,210,6/9,2,Участок для голосования №9,"Общежитие КУРЭП ""Жилищное ремонтно-эксплуатационное управление г.Барановичи""","г.Барановичи, ул.Космонавтов, 11",53.1454,26.0497
220,210,6/10,2,Участок для голосования №10,"ГУО ""Гимназия №1 г.Барановичи""","г.Барановичи, ул.Парковая, 45",53.14209,26.073478
221,210,6/11,2,Участок для голосования №11,"ГУО ""Гимназия №1 г.Барановичи""","г.Барановичи, ул.Парковая, 45",53.14209,26.073478
222,210,6/12,2,Участок для голосования №12,"ГУО ""Средняя школа №17 г.Барановичи""","г.Барановичи, ул.Циолковского, 8",53.1348,26.0695
223,210,6/13,2,Участок для голосования №13,"ГУО ""Средняя школа №17 г.Барановичи""","г.Барановичи, ул.Циолковского, 8",53.1348,26.0695
224,210,6/14,2,Участок для голосования №14,"ГУО ""Средняя школа №20 г.Барановичи""","г.Барановичи, ул.Энтузиастов, 58",53.1328,26.078
225,210,6/15,2,Участок для голосования №15,"Административное здание ОАО ""Автобусный парк г.Барановичи""","г.Барановичи, ул.Тельмана, 102",53.1301,26.0724
226,210,6/16,2,Участок для голосования №16,"Административное здание ОАО ""Грузовой автомобильный парк №4""","г.Барановичи, ул.Грунтовая, 47",53.1284,26.066
227,210,6/17,2,Участок для голосования №17,"Дом культуры железнодорожников ТРУП ""Барановичское отделение Белорусской железной дороги""","г.Барановичи, ул.Клубная, 6",53.1352,26.0415
228,210,6/18,2,Участок для голосования №18,"ГУО ""Средняя школа №13 г.Барановичи""","г.Барановичи, ул.Базисная, 7",53.1305,26.0525
229,210,6/19,2,Участок для голосования №19,"Детская поликлиника УЗ ""Барановичская детская городская больница""","г.Барановичи, ул.Чкалова, 2",53.1301,26.0249
230,210,6/20,2,Участок для голосования №20,"ГУО ""Средняя школа №7 г.Барановичи""","г.Барановичи, ул.Чкалова, 7",53.1309,26.0262
231,210,6/21,2,Участок для голосования №21,"ГУО ""Гимназия №4 г.Барановичи""","г.Барановичи, ул.Пирогова, 7",53.1302,26.0215
232,210,6/22,2,Участок для голосования №22,"ГУО ""Гимназия №2""","г.Барановичи, ул.З.Космодемьянской, 45",53.116984,26.033758
233,210,6/23,2,Участок для голосования №23,"ГУО ""Гимназия №2""","г.Барановичи, ул.З.Космодемьянской, 45",53.116984,26.033758
234,210,6/24,2,Участок для голосования №24,"ГУО ""Дворец детского творчества г.Барановичи""","г.Барановичи, ул.Советская, 136",53.1223,26.0231
235,210,6/25,2,Участок для голосования №25,"ГУК ""Барановичский городской Дом культуры""","г.Барановичи, ул.Ленина, 4-а",53.1314,26.0219
236,210,6/26,2,Участок для голосования №26,"ГУК ""Централизованная библиотечная система г.Барановичи""","г.Барановичи, ул.Ленина, 53",53.133,26.0327
237,210,6/27,2,Участок для голосования №27,"ГУО ""Средняя школа №9 им.Г.Н.Холостякова г.Барановичи""","г.Барановичи, ул.Брестская, 42",53.135708,26.02059
238,210,6/28,2,Участок для голосования №28,"ГУ ""Барановичский зональный центр гигиены и эпидемиологии""","г.Барановичи, ул.50 лет ВЛКСМ, 9",53.114,26.0284
239,210,6/29,2,Участок для голосования №29,"Учебный корпус №3 УО ""Барановичский государственный университет""","г.Барановичи, ул.Парковая,62",53.1464,26.0704
240,10000,7,1,ОИК 7,административное здание Барановичского ГИК кабинет 302,"г.Барановичи, ул.Советская, 79",53.1299084,26.0189935
241,240,7/1,2,Городищенский №1,"ГУО ""Городищенская детская школа искусств""","г.п.Городище, ул.Вежновца,1",53.3273,26.0052
242,240,7/2,2,Арабовщинский №2,сельский Дом культуры аг.Арабовщина,"аг.Арабовщина, ул.Могучего, 27",53.2632,26.0454
243,240,7/3,2,Гирмантовский №3,сельский Дом культуры аг.Гирамнтовцы,"аг.Гирмантовцы, ул.Первомайская, 33а,",53.2746,25.9178
244,240,7/4,2,Карчевский №4,сельский Дом культуры аг.Карчево,"аг.Карчево, ул.Мицкевича, 15",53.3632,26.1159
245,240,7/5,2,Великолукский №5,"ГУО ""Великолукская базовая школа""","д.Великие Луки, ул.Советская, 24",53.01,26.0464
246,240,7/6,2,Русиновский №6,"ГУО ""Русиновская средняя школа""","аг.Русино, ул.Школьная, 20",53.084105,26.093057
247,240,7/7,2,Вольновский №7,административное здание сельисполкома,"аг.Вольно, ул.Советская, 35",53.3021,26.2209
248,240,7/8,2,Нижнечерниховский №8,"ГУО ""Нижнечерниховская базовая школа""","д.Нижнее Чернихово, ул.Комсомольская, 1",53.2455,26.2849
249,240,7/9,2,Полонечковский №9,сельский Дом культуры д.Полонечка,"д.Полонечка, ул.Центральная, 86",53.3507,26.2617
250,240,7/10,2,Жемчужненский №10,сельский Дом культуры аг.Жемчужный,"аг.Жемчужный, ул.Центральная, 3",53.1379,25.8787
251,240,7/11,2,Свиранский №11,сельский Дом культуры д.Свираны,"д.Свираны, ул.Шоссейная, 24",53.1893,25.7137
252,240,7/12,2,Севрюковский №12,"столовая филиала ""Тепливоды"" ОАО ""Птицефабрика ""Дружба""","д.Севрюки, ул.Молодежная, 1",53.1345,25.8088
253,240,7/13,2,Крошинский №13,сельский Дом культуры аг.Крошин,"аг.Крошин, ул.Советская, 3",53.199,26.1562
254,240,7/14,2,Лавриновичский №14,сельский Дом культуры д.Лавриновичи,"д.Лавриновичи, ул.Несвижская, 43",53.151658,26.132443
255,240,7/15,2,Петковичский №15,сельский Дом культуры д.Петковичи,"д.Петковичи, ул.Чернышева, 6",53.6974,27.2001
256,240,7/16,2,Столовичский №16,культурно-досуговый центр,"аг.Столовичи, ул.Барановичская, 5а,",53.2142,26.0383
257,240,7/17,2,Стайковский №17,"административное здание филиала ""Стайки"" ОАО ""Птицефабрика ""Дружба""","д.Стайки, ул.Мирная, 8",53.2546,26.1808
258,240,7/18,2,Леснянский №18,"ГУО ""Леснянская средняя школа""","аг.Лесная, ул.Юбилейная, 4",52.9869,25.7673
259,240,7/19,2,Мирновский №19,сельский Дом культуры аг.Мирный,"аг.Мирный, ул.Центральная, 6",53.039636,25.978334
260,240,7/20,2,Светловский №20,сельский клуб,"пос.Светлый, ул.Центральная, 16",52.0235,25.9135
261,240,7/21,2,Утесский №21,"административное здание ОАО ""Утес""","д.Утес, ул.Гагарина, 53",52.9677,25.9337
262,240,7/22,2,Миловидский №22,"административное здание сельисполкома, аг.Миловиды","аг.Миловиды, ул.Советская, 7",52.896,25.8498
263,240,7/23,2,Молчадский №23,"административное здание сельисполкома, д.Молчадь","д.Молчадь, ул.Кирова, 79",53.3129,25.699
264,240,7/24,2,Малосворотовский №24,"административное здание филиала им.Вильчковского ОАО ""Птицефабрика ""Дружба""","д.Малая Своротва, ул.Вильчковского, 2в",53.3593,25.6954
265,240,7/25,2,Новомышский №25,"административное здание сельисполкома, д.Новая Мышь","д.Новая Мышь, ул.Парковая, 6",53.1388,25.9076
266,240,7/26,2,Приозерновский №26,сельский Дом культуры д.Приозерная,"д.Приозерная, ул.Заречная, 15/1",53.1213,25.9098
267,240,7/27,2,Мирской №27,сельский Дом культуры аг.Мир,"аг.Мир, ул.Центральная, 3",53.169593,25.937406
268,240,7/28,2,Тешевлянский №28,здание сельской библиотеки,"д.Тешевле, ул.Чекменёва, 138 в",53.2264,25.8176
269,240,7/29,2,Заболотский №29,сельский Дом культуры д.Заболотье,"д.Заболотье, ул.Еремина, 6а",53.1821,25.8356
270,240,7/30,2,Подгорновский №30,административное здание сельисполкома,"аг.Подгорная, ул.Центральная, 128б",52.988,25.5686
271,240,7/31,2,Полонковский №31,административное здание сельисполкома,"д.Полонка, ул.Щербакова, 31",53.1421,25.731
272,240,7/32,2,Перховичский №32,Центр культуры и народного творчества,"аг.Перховичи, ул.Центральная, 9",53.245,25.6528
273,240,7/33,2,Лотвичский №33,библиотека-клуб,"д.Лотвичи, ул.Мирошникова, 4а",53.1913,25.6663
274,240,7/34,2,Почаповский №34,сельский Дом культуры аг.Почапово,"аг.Почапово, ул.Центральная, 24",52.1499,26.2011
275,240,7/35,2,Ляховичский – Ленинский участок для голосования №35.,"Государственное учебно-спортивное учреждение ""Специализированная детско-юношеская школа олимпийского резерва Ляховичского района""","г.Ляховичи, ул.Ленина, 51",53.0341,26.27
276,240,7/36,2,Ляховичский – Гагаринский участок для голосования №36,Центральная районная библиотека им.Я.Купалы,"г.Ляховичи, ул.Гагарина,11",53.0384,26.2698
277,240,7/37,2,Ляховичский – Комсомольский участок для голосования №37,"ГУО ""Ляховичская детская школа искусств""","г.Ляховичи, ул.Комсомольская, 8",53.0408,26.2637
278,240,7/38,2,Ляховичский – Чкаловский участок для голосования №38.,"Главный учебный корпус обособленного структурного подразделения ""Ляховичский государственный аграрный колледж"" учреждения образования ""Барановичский государственный университет""","г.Ляховичи, ул.Ленина, 64",53.0335,26.2665
279,240,7/39,2,Ляховичский – Октябрьский участок для голосования №39,"Административное здание ГЛХУ ""Ляховичский лесхоз""","г.Ляховичи, ул.Орловского, 65",53.0308,26.2391
280,240,7/40,2,Ляховичский – Интернациональный участок для голосования №40.,"ГУО ""Гимназия г.Ляховичи""","г.Ляховичи, ул.Интернациональная, 3",53.0438,26.2534
281,240,7/41,2,Ляховичский – Больничный участок для голосования №41.,"Учреждение здравоохранения ""Ляховичская центральная районная больница""","г.Ляховичи, пер.Пушкина, 7",53.0487,26.2669
282,240,7/42,2,Гончаровский участок для голосования №42.,Административное здание Гончаровского сельисполкома Ляховичский р-н,"д.Гончары, ул.Школьная, 6",52.9627,26.3083
283,240,7/43,2,Куршиновичский участок для голосования №43.,Бывшее административное здание Куршиновичского сельисполкома Ляховичский р-н,"д.Куршиновичи, ул.Молодёжная, 21",52.8845,26.3239
284,240,7/44,2,Тальминовичский участок для голосования №44.,Тальминовичский сельский Дом культуры,"Ляховичский р-н, аг.Тальминовичи, ул.Школьная, 2",52.9478,26.3625
285,240,7/45,2,Жеребковичский участок для голосования №45.,Административное здание Жеребковичского сельисполкома,"Ляховичский р-н, аг.Жеребковичи, ул.Минская, 3",53.0404,26.2677
286,240,7/46,2,Подлесский участок для голосования №46.,Подлесский сельский Дом культуры,"Ляховичский р-н, аг.Подлесье, ул.Советская, 1",53.081,26.3547
287,240,7/47,2,Зубелевичский участок для голосования №47.,Бывшее административное здание Зубелевичский сельской библиотеки,"Ляховичский р-н, д.Зубелевичи, ул.Молодёжная, 1",53.0509,26.338
288,240,7/48,2,Даревский участок для голосования №48.,Даревский сельский Дом культуры,"Ляховичский р-н, д.Литва, ул.Ленина, 5",53.110369,26.158745
289,240,7/49,2,Коньковский участок для голосования №49.,Коньковский сельский Дом культуры,"Ляховичский р-н, аг.Коньки, ул.Школьная, 5",53.0597,26.1928
290,240,7/50,2,Головнинский участок для голосования №50.,"Административное помещение ЗАО ""Белпромприбор""","д.Головнинцы,ул.Интернациональная, 19",52.905,26.1097
291,240,7/51,2,Кривошинский участок для голосования №51.,Кривошинский сельский Дом культуры,"Ляховичский р-н, д.Кривошин, ул.Советская, 34",52.8734,26.1309
292,240,7/52,2,Липский участок для голосования №52.,Липский сельский Дом культуры,"Ляховичский р-н, аг.Липск, ул.Советская, 33",52.8329,26.0963
293,240,7/53,2,Святицкий участок для голосования №53.,Святицкий сельский Дом культуры,"Ляховичский р-н, д.Святица, ул.Молодёжная, 13",52.7574,26.0394
294,240,7/54,2,Начевский участок для голосования №54.,Административное здание Начевского сельисполкома,"Ляховичский р-н, аг.Нача, ул.60 лет Советской власти, 1",53.0344,26.424
295,240,7/55,2,Русиновичский участок для голосования №55.,Русиновичский сельский Дом культуры,"Ляховичский р-н, аг.Русиновичи, ул.Центральная, 25",52.982,26.313
296,240,7/56,2,Новосёлковский участок для голосования №56.,Новосёлковский физкультурно-оздоровительный комплекс,"Ляховичский р-н, аг.Новосёлки, ул.Спортивная, 2",53.1187,26.2788
297,240,7/57,2,Урожайнинский участок для голосования №57.,Урожайнинский сельский Дом культуры,"Ляховичский р-н, д.Урожайная, ул.Ленинская, 9",53.095,26.2289
298,240,7/58,2,Большелотовский участок для голосования №58.,"ГУО ""Гимназия г.Ляховичи""","г.Ляховичи, ул.Интернациональная, 3",53.0438,26.2534
299,240,7/59,2,Задворский участок для голосования №59.,"Административное здание ОАО ""Ляховичский льнозавод""","Ляховичский р-н, д.Задворье",53.01,26.2065
300,240,7/60,2,Ольховский участок для голосования №60.,Административное здание Ольховского сельисполкома,"Ляховичский р-н, д.Ольховцы, ул.Центральная, 11",52.984,26.1563
301,240,7/61,2,Малогородищенский участок для голосования №61.,Малогородищенский сельский клуб,"Ляховичский р-н, аг.Малое Городище, ул.Советская, 13",52.9562,26.0665
302,240,7/62,2,Островский участок для голосования №62.,Островский сельский Дом культуры,"Ляховичский р-н, аг.Остров, ул.Комсомольская, 18",52.8874,25.9767
303,240,7/63,2,Туховичский участок для голосования №63.,"ГУО ""Туховичская средняя школа"" Ляховичского района","Ляховичский р-н, д.Туховичи, ул.Заводская, 4",52.8084,25.9662
304,240,7/64,2,Участок для голосования №64,"УО ""Ганцевичский государственный профессиональный лицей сельскохозяйственного производства""","г.Ганцевичи, ул.Октябрьская, 50",52.7545,26.4208
305,240,7/65,2,Участок для голосования №65,"ГУО ""Средняя школа №1""","г.Ганцевичи, ул.Парковая, 10",52.7567,26.4301
306,240,7/66,2,Участок для голосования №66,"ГУО ""Гимназия г.Ганцевичи""","г.Ганцевичи, ул.Парковая, 10",52.7567,26.4301
307,240,7/67,2,Участок для голосования №67,"ГУК ""Ганцевичская районная централизованная клубная система"" городской Дом культуры","г.Ганцевичи, ул.Октябрьская, 4",52.7632,26.4266
308,240,7/68,2,Участок для голосования №68,"ГУО ""Средняя школа №2 г.Ганцевичи""","г.Ганцевичи, ул.Калиновского, 36",52.7584,26.4401
309,240,7/69,2,Участок для голосования №69,"ГУК ""Ганцевичская районная централизованная клубная система"" Денисковичский сельский клуб","д.Денисковичи, ул.Ленина, 74 а",52.7232,26.6788
310,240,7/70,2,Участок для голосования №70,"ГУО ""Ганцевичская средняя школа им.Героя Советского Союза А.П.Бринского"" Ганцевичского района","д.Ганцевичи, ул.Гастелло, 25",52.7493,26.4464
311,240,7/71,2,Участок для голосования №71,административное здание Любашевского сельского исполнительного комитета,"Ганцевичский р-н, д.Любашево, ул.Пролетарская, 4",52.7797,26.424
312,240,7/72,2,Участок для голосования №72,"Локтышевский фельдшерско-акушерский пункт Начской амбулатории общей практики УЗ ""Ганцевичская центральная районная больница""","д.Локтыши, ул.Мира, 20",52.8316,26.7237
313,240,7/73,2,Участок для голосования №73,административное здание Начского сельского исполнительного комитета,"д.Начь, ул.Октябрьская, 15",52.8426,26.6692
314,240,7/74,2,Участок для голосования №74,"административное здание филиала ГУО ""Ганцевичский р-нный центр детско-юношеского туризма и краеведения"" туриститческая база ""Островок""","аг.Остров, ул.Школьная, 2",52.8525,26.6082
315,240,7/75,2,Участок для голосования №75,административное здание Огаревичского сельского исполнительного комитета,"аг.Огаревичи, ул.Брестская, 2",52.7688,26.5241
316,240,7/76,2,Участок для голосования №76,"ГУО ""Куковская средняя школа"" Ганцевичского района","аг.Куково, ул.Коммунистическая, 7",52.8147,26.5512
317,240,7/77,2,Участок для голосования №77,"ГУК ""Ганцевичская районная централизованная клубная система"" Большекруговичский сельский клуб","д.Большие Круговичи, ул.Школьная, 19",52.775,26.6232
318,240,7/78,2,Участок для голосования №78,"ГУК ""Ганцевичская районная централизованная клубная система"" Малокруговичский Дом социально-культурных услуг","д.Малые Круговичи, ул.Победы, 29 а",52.7927,26.5996
319,240,7/79,2,Участок для голосования №79,"ГУО ""Будчанский ясли-сад – средняя школа"" Ганцевичского района","д.Будча, пер.Центральный, 1",52.7597,26.842
320,240,7/80,2,Участок для голосования №80,"ГУО ""Чудинская средняя школа"" Ганцевичского района","аг.Чудин, ул.Советская, 149 б",52.7255,26.9723
321,240,7/81,2,Участок для голосования №81,"ГУК ""Ганцевичская районная централизованная клубная система"" Хотыничский сельский Дом культуры","аг.Хотыничи, ул.Пинская, 9",52.6252,26.3083
322,240,7/82,2,Участок для голосования №82,"ГУО ""Хотыничская средняя школа"" Ганцевичского района","аг.Хотыничи, пер.Школьный, 2",52.6308,26.3038
323,240,7/83,2,Участок для голосования №83,"ГУК ""Ганцевичская районная централизованная клубная система"" Раздяловичский сельский Дом культуры","аг.Раздяловичи, ул.Советская, 3",52.6316,26.1405
324,10000,8,1,ОИК 8,административное здание Жабинковского РИК кабинет 31,"г.Жабинка, ул.Кирова, 65",52.1883387,24.0332379
325,324,8/1,2,Участковая избирательная комиссия Комаровского участка для голосования №1,"административное здание передвижной механизированной колонны №19 (г.Жабинка) государственного унитарного производственного предприятия ""Брестводстрой""","г.Жабинка, ул.Мира, 14",52.1992,24.0291
326,324,8/2,2,Участковая избирательная комиссия Заречного участка для голосования №2,"ГУО ""Ясли-сад №3 города Жабинка""","г.Жабинка, ул.Молодежная, 5",52.1915,24.0336
327,324,8/3,2,Участковая избирательная комиссия Кировского участка для голосования №3,"здание ГУО ""Средняя школа №1 г.Жабинки""","г.Жабинка, ул.Кирова, 99",52.1918,24.0268
328,324,8/4,2,Участковая избирательная комиссия Пушкинского участка для голосования №4,"городской Дома культуры государственного учреждения культуры ""Жабинковская районная централизованная клубная система""","г.Жабинка, ул.Кирова, 91",52.1943,24.0211
329,324,8/5,2,Участковая избирательная комиссия Свободского участка для голосования №5,"ГУО ""Средняя школа №3 г.Жабинки""","г.Жабинка, ул.Свободы",52.197,24.0173
330,324,8/6,2,Участковая избирательная комиссия Калининского участка для голосования №6,"ГУО ""Средняя школа №2 г.Жабинки""","г.Жабинка, ул.Калинина, 11",52.1915,23.9863
331,324,8/7,2,Участковая избирательная комиссия Заводского участка для голосования №7,"здание клуба ОАО ""Жабинковский сахарный завод""","г.Жабинка, ул.Калинина, 1",52.1905,23.9851
332,324,8/8,2,Участковая избирательная комиссия Жабинковского-сельского участка для голосования №8,"кинотеатр ""Юбилейный""","г.Жабинка, ул.Кирова, 49",52.1967,24.0126
333,324,8/9,2,Участковая избирательная комиссия Прибужского участка для голосования №9,"административном здании дочернего унитарного предприятия ""Санаторий Буг""","Жабинковский р-н, Санаторий Буг",52.1876,24.1317
334,324,8/10,2,Участковая избирательная комиссия Ленинского участка для голосования №10,Ленинский сельский исполнительный комитет,"аг.Ленинский, ул.Ленина, 8",53.9007,27.5583
335,324,8/11,2,Участковая избирательная комиссия Озятского участка для голосования №11,"Озятский сельский Дом культуры государственного учреждения культуры ""Жабинковская районная централизованная клубная система""","аг.Озяты, ул.Комсомольская, 1",52.1004,24.1413
336,324,8/12,2,Участковая избирательная комиссия по Ракитницкого участка для голосования №12,"Ракитницкий сельский Дом культуры государственного учреждения культуры ""Жабинковская районная централизованная клубная система""","аг.Ракитница, ул.24 съезда КПСС, 5",52.1355,23.9877
337,324,8/13,2,Участковая избирательная комиссия Хмелевского участка для голосования №13,"Хмелевский сельский Дом культуры государственного учреждения культуры ""Жабинковская районная централизованная клубная система""","аг.Хмелево, ул.Центральная, 64",52.2527,23.9076
338,324,8/14,2,Участковая избирательная комиссия Степанковского участка для голосования №14,Степанковский сельский исполнительный комитет,"аг.Степанки, ул.Центральная, 10",52.271,23.9896
339,324,8/15,2,Участковая избирательная комиссия Кривлянского участка для голосования №15,"Кривлянский сельский Дом культуры государственного учреждения культуры ""Жабинковская районная централизованная клубная система""","аг.Кривляны, ул.Ленина, 3",52.2876,24.0666
340,324,8/16,2,Участковая избирательная комиссия Матеевичского участка для голосования №16,"ГУО ""Матиевичская базовая школа""","аг.Матеевичи, ул.Центральная, 1",52.2376,24.07
341,324,8/17,2,Участковая избирательная комиссия Яковчицкого участка для голосования №17,"административное здание отделения №2 ОАО ""Жабинковский""","аг.Большие Яковчицы, ул.Центральная, 69",52.2369,24.1302
342,324,8/18,2,Участковая избирательная комиссия Вежковского участка для голосования №18,"административное здание ОАО ""Вознесенский""","д.Вежки, ул.Центральная, 25",52.2828,24.1161
343,324,8/19,2,Участок для голосования №19,Каменецкий р-нный Дома культуры,"г.Каменец, ул.Брестская, 21",52.4007,23.8245
344,324,8/20,2,Участок для голосования №20,"ГУО ""Средняя школа №2 г.Каменца""","г.Каменец, ул.Брестская, 60/1",52.3947,23.8232
345,324,8/21,2,Участок для голосования №21,"ГУО ""Средняя школа №2 г.Каменца"" (здание начальных классов)","г.Каменец, ул.Брестская, 85/1",52.3931,23.8236
346,324,8/22,2,Участок для голосования №22,"отдел строительно-монтажных работ и энергетики ОАО ""Каменецкий райагросервис""","г.Каменец, ул.8 Марта, 19",52.3941,23.8332
347,324,8/23,2,Участок для голосования №23,"ГУО ""Средняя школа №1 г.Каменца""","г.Каменец, ул.Ленина, 1",52.4045,23.8185
348,324,8/24,2,Участок для голосования №24,Речицкий сельский исполнительный комитет,"д.Речица, ул.Юбилейная, 3",52.392877,24.011289
349,324,8/25,2,Участок для голосования №25,Пелищенскмй сельский Центр культуры и досуга,"аг.Пелище, ул.Первомайская, 5",52.317,23.9197
350,324,8/26,2,Участок для голосования №26,Видомлянский сельский Дом культуры,"аг.Видомля, ул.Школьная, 2",52.3263,23.7815
351,324,8/27,2,Участок для голосования №27,"ГУО ""Турнянская средняя школа""","аг.Турна Большая, ул.Брестская, 2",52.2713,23.7685
352,324,8/28,2,Участок для голосования №28,Ратайчицкий сельский клуб,"д.Ратайчицы, ул.С.Вирко, 61",52.3453,23.6141
353,324,8/29,2,Участок для голосования №29,Войсковскій сельскій Дома культуры,"аг.Войская, ул.Советская, 33/1",52.4084,23.6327
354,324,8/30,2,Участок для голосования №30,"ГУО ""Свищевская средняя школа""","д.Бучемль 3 ул.Школьная, 1",52.3647,23.648
355,324,8/31,2,Участок для голосования №31,"ГУО ""Дмитровичская средняя школа""","аг.Дмитровичи, ул.Школьная, 2",52.4917,23.7787
356,324,8/32,2,Участок для голосования №32,"ГУО ""Ходосовская базовая школа""","аг.Ходосы, ул.Советская, 20",52.4671,23.7318
357,324,8/33,2,Участок для голосования №33,Каменюкский сельский Центра ремесел и культуры,"аг.Каменюки, ул.Пущанская, 8",52.5582,23.7964
358,324,8/34,2,Участок для голосования №34,"ГУО ""Новицковичская средняя школа""","аг.Новицковичи, ул.Школьная, 15",52.4409,23.8442
359,324,8/35,2,Участок для голосования №35,Волчинский сельскій исполнительный комитет,"д.Волчин, ул.Ленина, 34",52.2823,23.3122
360,324,8/36,2,Участок для голосования №36,Новоселковскій сельский Дом культуры,"аг.Новоселки, ул.Ленина, 1а",52.2609,23.235
361,324,8/37,2,Участок для голосования №37,Ставский сельскій клуб,"аг.Ставы, ул.Кукелко, 4",52.2311,23.3429
362,324,8/38,2,Участок для голосования №38,Огородникский сельский Дом культуры,"аг.Огородники, ул.Октябрьская, 3",52.3454,23.3424
363,324,8/39,2,Участок для голосования №39,"кафе ""Встреча""","аг.Макарово, ул.Пограничная, 120",52.3616,23.3248
364,324,8/40,2,Участок для голосования №40,Ряснянскій сельский Дом культуры,"аг.Рясна, ул.Юбилейная, 1б",52.3917,23.4113
365,324,8/41,2,Участок для голосования №41,"ГУО ""Высоко - Литовский ясли - сад""","д.Оберовщина, ул.Первомайская, 16/1",52.4003,23.3818
366,324,8/42,2,Участок для голосования №42,"ГУО ""Пограничная средняя школа""","Каменецкий р-н, аг.Пограничная, ул.Советских пограничников, 50",52.4567,23.3657
367,324,8/43,2,Участок для голосования №43,"ГУО ""Беловежская средняя школа""","аг.Беловежский, ул.Школьная, 2",52.4054,23.462
368,324,8/44,2,Участок для голосования №44,Беловежский Дом культуры,"аг.Беловежский, ул.Ленина, 2",52.4028,23.4645
369,324,8/45,2,Участок для голосования №45,Верховичский сельский исполнительный комитет,"д.Верховичи, ул.Советская, 8",52.4709,23.5111
370,324,8/46,2,Участок для голосования №46,Долбизнянский сельский Дом культуры,"аг.Долбизно, ул.Дзержинского, 16",52.4891,23.4508
371,324,8/47,2,Участок для голосования №47,Каленковичский сельский Дом культуры,"аг.Каленковичи, ул.Молодежная, 6",52.4989,23.5683
372,324,8/48,2,Участок для голосования №48,Омеленецкий сельский Дом культуры,"д.Омеленец, ул.Центральная, 41 б",52.5369,23.5504
373,324,8/49,2,Участок для голосования №49,Высоковский городской Дом культуры,"г.Высокое, ул.Комсомольская, 3",52.3662,23.3796
374,324,8/50,2,Участок для голосования №50,"ГУО ""Высоковская средняя школа""","г.Высокое, ул.Ленина, 83",52.3725,23.3662
375,324,8/51,2,Участок для голосования №51,здание общежития,"г.Высокое, ул.Строителей, 12",52.3782,23.3622
376,324,8/52,2,Участок для голосования №52,"учреждение здравоохранения ""Каменецкая центральная районная больница""","г.Каменец, ул.Чкалова, 33",52.4039,23.8269
377,324,8/53,2,Участок для голосования №53,"Высоковская городская больница учреждения здравоохранения ""Каменецкая центральная районная больница""","г.Высокое, ул.Советская, 80/1",52.3664,23.3874
378,324,8/54,2,Участок для голосования №54,"филиал №3 ""Туберкулезная больница ""Верховичи"" учреждения здравоохранения ""Брестский областной противотуберкулезный диспансер""","д.Верховичи, ул.Советская, 35",52.4709,23.5111
379,324,8/55,2,Малоритский-Красноармейский участок для голосования №55,"здание ГУО (далее – ГУО) ""Малоритская районная гимназия""","г.Малорита, ул.Парковая,10",51.7883,24.0839
380,324,8/56,2,Малоритский-Пионерский участок для голосования №56,"здание учреждения образования ""Малоритский государственный профессиональный лицей сельскохозяйственного производства""","г.Малорита, ул.Пионерская, 3",51.7909,24.0782
381,324,8/57,2,Малоритский-Советский участок для голосования №57,"здание ОАО ""Малоритская райагропромтехника""","г.Малорита, ул.Советская, 79",51.7867,24.0716
382,324,8/58,2,Малоритский-Школьный участок для голосования №58,"здание ГУО ""Малоритская средняя школа №1""","г.Малорита, ул.Советская, 50",51.7883,24.0759
383,324,8/59,2,Малоритский-Новый участок для голосования №59,"здание ПМК-8 (г.Малорита) государственного унитарного производственного предприятия ""Брестводстрой""","г.Малорита, ул.Советская, 114",51.7849,24.0599
384,324,8/60,2,Замшанский участок для голосования №60,"здание ГУО ""Замшанский учебно-педагогический комплекс детский сад – базовая школа"" Малоритского района","д.Замшаны, ул.Советская, 25",51.8324,24.0856
385,324,8/61,2,Великоритский участок для голосования №61,"здание ГУО ""Великоритская средняя школа им.П.В.Саевича"" Малоритского района","аг.Великорита, ул.Парковая,12",51.9435,24.0412
386,324,8/62,2,Пожежинский участок для голосования №62,"здание ГУО ""Пожежинская базовая школа"" Малоритского района","д.Пожежин, ул.Завьялова,108",51.9433,23.9718
387,324,8/63,2,Гвозницкий участок для голосования №63,здание сельского Дома культуры,"аг.Гвозница, ул.Ленина, 5",51.81737,23.907827
388,324,8/64,2,Збуражский участок для голосования №64,"здание ГУО ""Збуражский учебно-педагогический комплекс детский сад - средняя школа"" Малоритского района","д.Збураж, ул.Первомайская, 38",51.7644,23.9521
389,324,8/65,2,Луковский участок для голосования №65,здание сельского Дома культуры,"аг.Луково ул.Суворова,54",51.8893,24.2384
390,324,8/66,2,Мокранский участок для голосования №66,"здание ГУО ""Мокранская средняя школа"" Малоритского района","аг.Мокраны, ул.Школьная, 3",51.8338,24.2577
391,324,8/67,2,Ляховецкий участок для голосования №67,здание сельского Дома культуры,"аг.Ляховцы, ул.Малоритская, 1",51.8005,24.2014
392,324,8/68,2,Ланской участок для голосования №68,здание сельского Дома культуры,"д.Ланская, ул.Ленина, 17/1",51.6935,23.942
393,324,8/69,2,Олтушский участок для голосования №69,"здание ГУО ""Олтушская средняя школа"" Малоритского района","аг.Олтуш, ул.Советская, 115",51.6902,23.9694
394,324,8/70,2,Радежский участок для голосования №70,"здание ГУО ""Радежская средняя школа"" Малоритского района","д.Радеж, ул.Красноармейская, 6",51.6978,23.821
395,324,8/71,2,Ореховский участок для голосования №71,здание сельского Дома культуры,"аг.Орехово, ул.Советская, 22",51.6363,23.9509
396,324,8/72,2,Мельникский участок для голосования №72,"здание ГУО ""Мельникская базовая школа"" Малоритского района","д.Мельники, ул.Школьная, 7",51.7383,24.1308
397,324,8/73,2,Хотиславский участок для голосования №73,здание сельского Дома культуры,"аг.Хотислав, ул.Ленина, 18",51.7104,24.0996
398,324,8/74,2,Доропеевичский участок для голосования №74,"здание ГУО ""Доропеевичский учебно-педагогический комплекс детский сад -средняя школа"" Малоритского района","д.Доропеевичи, ул.Юбилейная,5",51.9643,24.3152
399,324,8/75,2,Чернянский участок для голосования №75,"здание ГУО ""Чернянская средняя школа"" Малоритского района","аг.Черняны, ул.Школьная, 2",51.987,24.2065
400,10000,9,1,ОИК 9,административное здание Пружанского РИК кабинет 418,"г.Пружаны, ул.Григория Ширмы, 17",52.5557778,24.4553068
401,400,9/1,2,Участок для голосования №1,"ГУДО ""Центр творчества детей и молодежи г.Пружаны""","г.Пружаны, ул.Комсомольская, 1",52.5585,24.4554
402,400,9/2,2,Участок для голосования №2,"ГУО ""Средняя школа №1 г.Пружаны им.Краснознаменного Белорусского военного округа""","г.Пружаны, ул.Ленина, 58",52.5558,24.4551
403,400,9/3,2,Участок для голосования №3,"ГУПП ""Пружанское ПМС""","г.Пружаны, ул.Костякова, 72",52.5597,24.4301
404,400,9/4,2,Участок для голосования №4,Пружанское районное потребительское общество,"г.Пружаны, ул.Кобринская, 6",52.5558,24.4553
405,400,9/5,2,Участок для голосования №5,"ГУО ""Гимназия г.Пружаны""","г.Пружаны, ул.г.Ширмы, 11",52.5555,24.4627
406,400,9/6,2,Участок для голосования №6,"ГУО ""Средняя школа №4 г.Пружаны"" г.Пружаны","г.Пружаны, ул.Г.Ширмы, 48",52.5555,24.4627
407,400,9/7,2,Участок для голосования №7,"ГУО ""Средняя школа №3 г.Пружаны""","г.Пружаны, ул.Октябрьская, 58",52.5613,24.4679
408,400,9/8,2,Участок для голосования №8,управление по труду занятости и социальной защите Пружанского районного исполнительного комитета,"г.Пружаны, ул.Красноармейская, 78",52.5613,24.4789
409,400,9/9,2,Участок для голосования №9,"УО ""Пружанский государственный аграрно-технический колледж""","г.Пружаны, ул.Маяковского, 9",52.5558,24.4553
410,400,9/10,2,Участок для голосования №10,"УЗ ""Пружанская ЦРБ""","г.Пружаны, ул.Мицкевича, 27",52.5656,24.471
411,400,9/11,2,Участок для голосования №11,"ГУ ""Пружанский р-нный центр гигиены и эпидемиологии""","г.Пружаны, ул.Строительная, 2",52.5709,24.469
412,400,9/12,2,Участок для голосования №12,"здание №2 ГУК ""Пружанский городской Дворец культуры""","г.Пружаны, ул.Интернациональная, 26",52.5558,24.4553
413,400,9/13,2,Участок для голосования №13,"ГУО ""Средняя школа №5 г.Пружаны""","г.Пружаны, ул.Свободы, 91",52.5582,24.4602
414,400,9/14,2,Участок для голосования №14,сельский Дом культуры аг.Белоусовщина,"аг.Белоусовщина, ул.Советская, 7",52.5974,24.4879
415,400,9/15,2,Участок для голосования №15,сельский Дом культуры п.Солнечный,"пос.Солнечный, 9 А/1",52.5678,24.4192
416,400,9/16,2,Участок для голосования №16,сельский клуб-библиотека,"д.Слонимцы, ул.Центральная, 7",52.5351,24.4899
417,400,9/17,2,Участок для голосования №17,сельский Дом культуры д.Слобудка,"д.Слобудка, ул.Армейская, 4",52.5197,24.5178
418,400,9/18,2,Участок для голосования №18,центр культуры и досуга,"г.п.Шерешево, пл.Фимина, 3",52.5553,24.2145
419,400,9/19,2,Участок для голосования №19,"ГУО ""Шерешевская средняя школа""","г.п.Шерешево, ул.Кирова, 8",52.565,24.2066
420,400,9/20,2,Участок для голосования №20,"ГУО ""Городечненский детский сад Пружанского района""","д.Городечно, ул.Советская, 21",52.4237,24.31
421,400,9/21,2,Участок для голосования №21,сельский клуб-библиотека,"д.Криница, ул.Советская.1",54.0372,27.2899
422,400,9/22,2,Участок для голосования №22,сельский Дом культуры аг.Ровбицк,"аг.Ровбицк, ул.Красноармейская, 43",52.6674,24.0779
423,400,9/23,2,Участок для голосования №23,сельский Дом культуры аг.Староволя,"аг.Староволя, ул.Вознищука, 10",52.5678,24.3312
424,400,9/24,2,Участок для голосования №24,сельский Совет,"аг.Шени, ул.Центральная, 45",53.8743,27.6545
425,400,9/25,2,Участок для голосования №25,сельский Совет,"аг.Щерчово, ул.Чередниченко, 8",52.4264,24.1503
426,400,9/26,2,Участок для голосования №26,сельский Дом культуры аг.Великое Село,"аг.Великое Село, ул.Свердлова, 59",52.6372,24.3191
427,400,9/27,2,Участок для голосования №27,сельский Дом культуры аг.Клепачи,"аг.Клепачи, ул.60 лет БССР, 2",52.8008,24.8447
428,400,9/28,2,Участок для голосования №28,сельский Совет,"д.Мокрое, ул.Советская, 39",52.0944,23.6914
429,400,9/29,2,Участок для голосования №29,сельский клуб-библиотека,"аг.Рудники, 43",52.667,24.5128
430,400,9/30,2,Участок для голосования №30,сельский Дом культуры аг.Сухополь,"аг.Сухополь, ул.Советская, 1А",52.6576,24.1707
431,400,9/31,2,Участок для голосования №31,сельский Дом культуры аг.Мурава,"аг.Мурава, ул.Калинина, 110",52.641,24.2208
432,400,9/32,2,Участок для голосования №32,сельский Дом культуры д.Новые Засимовичи,"д.Новые Засимовичи, ул.Авиационная",52.6015,24.3964
433,400,9/33,2,Участок для голосования №33,центр культуры и досуга,"г.п.Ружаны, ул.Советская, 11",52.8671,24.8909
434,400,9/34,2,Участок для голосования №34,"ГУДО ""Ружанский многопрофильный центр по работе с детьми и молодежью""","г.п.Ружаны, ул.Советская,15",52.863,24.891
435,400,9/35,2,Участок для голосования №35,сельский Дом культуры д.Зиновичи,"д.Зиновичи, ул.Центральная, 19",52.9214,24.7265
436,400,9/36,2,Участок для голосования №36,сельская библиотека-клуб,"д.Осошники, ул.Новая, 3",52.8652,24.6679
437,400,9/37,2,Участок для голосования №37,"ОАО ""Родина""","аг.Лысково, ул.Пружанская, 14А",52.8556,24.6144
438,400,9/38,2,Участок для голосования №38,сельский клуб-библиотека,"д.Юндилы, ул.1 Мая, 1А",52.8756,25.0466
439,400,9/39,2,Участок для голосования №39,фельдшерско-акушерский пункт д.Молочки,"д.Молочки, 78",52.8403,24.842
440,400,9/40,2,Участок для голосования №40,фельдшерско-акушерский пункт д.Полонск,"д.Полонск, 40А",52.9236,24.8636
441,400,9/41,2,Участок для голосования №41,"корпус №5 ОАО ""Санаторий ""Ружанский""","Пружанский р-н, д.Заполье 1а",52.9038,24.8697
442,400,9/42,2,Участок для голосования №42,"ГУО ""Бакунский-1 учебно-педагогический комплекс детский сад-базовая школа""","д.Бакуны, ул.Центральная, 69А",52.4646,24.633
443,400,9/43,2,Участок для голосования №43,сельский Дом культуры аг.Линово,"аг.Линово, ул.Парковая, 1",52.4751,24.5201
444,400,9/44,2,Участок для голосования №44,Дом фольклора,"д.Оранчицы, ул.Комарова, 21",52.4674,24.5203
445,400,9/45,2,Участок для голосования №45,сельская библиотека,"д.Смоляны, ул.Центральная, 23",54.598,30.0625
446,400,9/46,2,Участок для голосования №46,сельский Дом культуры аг.Хорева,"аг.Хорева, пер.Октябрьский, 6",52.6367,24.583
447,400,9/47,2,Участок для голосования №47,сельский Дом культуры аг.Колядичи,"аг.Колядичи, ул.Шоссейная, 17",53.8125,27.5848
448,400,9/48,2,Участок для голосования №48,сельский Дом культуры аг.Кобыловка,"аг.Кобыловка, ул.Центральная, 3",52.6787,24.661
449,400,9/49,2,Участок для голосования №49,"ГУО ""Ворониловичский учебно-педагогический комплекс детский сад-средняя школа""","аг.Ворониловичи, ул.Молодёжная, 2",52.8075,24.9272
450,400,9/50,2,Участок для голосования №50,сельский Дом культуры аг.Колозубы,"аг.Колозубы, ул.Пионерская, 15А",52.8263,24.9972
451,400,9/51,2,Участок для голосования №51,"ГУК ""Березовская районная библиотечная система""","г.Береза, ул.Советская, 18",52.5342,24.9813
452,400,9/52,2,Участок для голосования №52,"ГУО ""Средняя школа №1 г.Березы им.В.Х.Головко""","г.Береза, ул.Якова Свердлова, 69а",52.5384,24.9811
453,400,9/53,2,Участок для голосования №53,"ГУО ""Березовская начальная школа""","г.Береза, ул.Веры Хоружей, 1",52.5401,24.9746
454,400,9/54,2,Участок для голосования №54,Торгово-общественный центр,"г.Береза, ул.Степана Любарского, 32",52.547,24.9817
455,400,9/55,2,Участок для голосования №55,"ГУК ""Дворец культуры г.Береза""","г.Береза, ул.Владимира Ленина, 30",52.5379,24.9917
456,400,9/56,2,Участок для голосования №56,"ГУК ""Детско-юношеский спортивно-эстетический центр""","г.Береза, ул.Владимира Ленина, 104а-Красные казармы",52.5284,24.9689
457,400,9/57,2,Участок для голосования №57,"Административное здание ОАО ""Березовский мотороремонтный завод""","г.Береза, ул.Комсомольская, 16",52.5246,24.962
458,400,9/58,2,Участок для голосования №58,"Актовый зал общежития ОАО ""Березовский мясоконсервный комбинат""","г.Береза, ул.Советская, 62",52.5293,24.9861
459,400,9/59,2,Участок для голосования №59,"ГУО ""Средняя школа №3 г.Березы""","г.Береза, ул.Владимира Ленина, 79а",52.5313,24.9831
460,400,9/60,2,Участок для голосования №60,"Спортзал ОАО ""Березастройматериалы""","г.Береза, ул.Павла Горина-Коляды, 6",52.5218,24.9689
461,400,9/61,2,Участок для голосования №61,"Административный корпус УЗ ""Березовская ЦРБ им.Э.Э.Вержбицкого""","г.Береза, ул.Владимира Ленина,1",52.5379,24.9968
462,400,9/62,2,Участок для голосования №62,"ГУО ""Березовская базовая школа им.А.Н.Заставного""","г.Береза, ул.Школьная, 1",52.5522,24.9638
463,400,9/63,2,Участок для голосования №63,"Филиал №13 Светочский сельский Дом культуры ГУК ""Березовская районная клубная система""","д.Светоч, ул.Юрия Гагарина, 7",52.4868,24.9263
464,400,9/64,2,Участок для голосования №64,"Филиал №18 Заречский сельский клуб ГУК ""Березовская районная клубная система""","д.Заречье, ул.Октябрьская, 21б",52.5411,25.0295
465,400,9/65,2,Участок для голосования №65,Филиал №5 Малечский сельский Дом культуры,"аг.Малеч, ул.Советская, 33б",52.4888,24.7077
466,400,9/66,2,Участок для голосования №66,"Филиал №11 Подкраичский сельский Дом культуры ГУК ""Березовская районная клубная система""","аг.Подкраичи, ул.Коммунистическая, 22",52.4345,24.7169
467,400,9/67,2,Участок для голосования №67,"Филиал №8 Нарутовичский сельский Дом культуры ГУК ""Березовская районная клубная система""","аг.Нарутовичи, ул.Советская, 25",52.5556,24.7725
468,400,9/68,2,Участок для голосования №68,"Филиал №14 Селецкий сельский Дом культуры ГУК ""Березовская районная клубная система""","аг.Селец, ул.Молодежная, 10",52.5865,24.863
469,10000,10,1,ОИК 10,административное здание Дрогичинского РИК кабинет 14,"г.Дрогичин, ул.Ленина, 138",52.1855319,25.1594192
470,469,10/1,2,Участок для голосования №1,"ГУО ""Средняя школа №1 г.Дрогичина""","г.Дрогичин, ул.Карла Маркса, 6",52.1886,25.1574
471,469,10/2,2,Участок для голосования №2,"филиал ""ПМК-3"" ГУПП ""Брестводстрой""","г.Дрогичин, ул.Мелиоративная, 30",52.1963,25.1689
472,469,10/3,2,Участок для голосования №3,"ГУО ""Гимназия г.Дрогичина""","г.Дрогичин, ул.Ленина, 165",52.1857,25.1645
473,469,10/4,2,Участок для голосования №4,"ГУО ""Средняя школа №2 г.Дрогичина""","г.Дрогичин, ул.Ленина, 101",52.1878,25.1496
474,469,10/5,2,Участок для голосования №5,"ГУО ""Дрогичинский р-нный центр дополнительного образования детей и молодежи""","г.Дрогичин, ул.Вокзальная, 15",52.1838,25.1525
475,469,10/6,2,Участок для голосования №6,"Дрогичинский р-н электросетей филиала РУП ""Брестэнерго"" Пинские электросети","г.Дрогичин, ул.Ленина, 50",52.1866,25.1353
476,469,10/7,2,Участок для голосования №7,"УЗ ""Дрогичинская ЦРБ""","г.Дрогичин, ул.9 Мая, 40",52.1926,25.1629
477,469,10/8,2,Участок для голосования №8,"ГУО ""Антопольская средняя школа""","г.п.Антополь, ул.Шиша, 18",52.1993,24.7873
478,469,10/9,2,Участок для голосования №9,Антопольский горпоселковый Дом культуры,"г.п.Антополь, ул.Пролетарская, 4",52.2038,24.7883
479,469,10/10,2,Участок для голосования №10,Осиповичский сельский Дом культуры,"д.Осиповичи, ул.Советская, 18",53.3126,28.6411
480,469,10/11,2,Участок для голосования №11,Детковичский сельский Дом культуры,"аг.Детковичи, ул.Советская, 20",52.3137,24.8141
481,469,10/12,2,Участок для голосования №12,административное здание сельисполкома,"аг.Бездеж, ул.Советская, 3",52.3166,25.3077
482,469,10/13,2,Участок для голосования №13,Завершский сельский Дом культуры,"д.Завершье, ул.Зеленая, 18",52.2826,25.3684
483,469,10/14,2,Участок для голосования №14,Брашевичский сельский Дом культуры,"аг.Брашевичи, ул.Школьная, 5",52.2202,25.0121
484,469,10/15,2,Участок для голосования №15,Вульковский сельский клуб,"аг.Вулька, ул.Советская, 28а",52.2574,25.1309
485,469,10/16,2,Участок для голосования №16,Гутовский сельский Дом культуры,"д.Гутово, ул.Советская, 34",52.1885,25.3391
486,469,10/17,2,Участок для голосования №17,Липникский сельский Дом культуры,"аг.Липники, ул.Шоссейная, 27",52.1757,25.2316
487,469,10/18,2,Участок для голосования №18,"ГУО ""УПК Ровинская детский сад - средняя школа""","д.Ровины, ул.Садовая, 11",52.2288,25.2168
488,469,10/19,2,Участок для голосования №19,Перковичский сельский Дом культуры,"д.Перковичи, ул.Брестская, 3",52.1775,25.0389
489,469,10/20,2,Участок для голосования №20,Головчицкий сельский клуб,"аг.Головчицы, ул.Советская, 110",52.149072,24.872936
490,469,10/21,2,Участок для голосования №21,Корсуньский сельский клуб,"д.Корсунь, ул.Центральная, 1",52.1761,24.8949
491,469,10/22,2,Участок для голосования №22,Закозельский сельский Дом культуры,"аг.Закозель, ул.Заводская, 19",52.1282,25.0022
492,469,10/23,2,Участок для голосования №23,Вулька-Радовецкий сельский клуб,"аг.Вулька-Радовецкая, ул.Жукова, 1",52.1435,25.0459
493,469,10/24,2,Участок для голосования №24,"ГУО ""Именинская средняя школа""","аг.Именин, ул.Школьная, 13",52.2361,24.9086
494,469,10/25,2,Участок для голосования №25,зал торжественных обрядов сельисполкома,"д.Немержа, ул.Ленина, 34",52.2992,25.0558
495,469,10/26,2,Участок для голосования №26,"здание ОАО ""Алексеевичи-Агро""","д.Алексеевичи, ул.Ленина, 62",52.2799,24.9955
496,469,10/27,2,Участок для голосования №27,Осовецкий сельский Дом культуры,"аг.Осовцы, ул.Советская, 51а",52.0837,25.2467
497,469,10/28,2,Участок для голосования №28,"ГУО ""УПК Белинская детский сад - базовая школа""","д.Белин, ул.Парковая, 1а",52.0538,25.2059
498,469,10/29,2,Участок для голосования №29,Попинский сельский Дом культуры,"аг.Новая Попина, ул.Первомайская, 6",52.12,25.1257
499,469,10/30,2,Участок для голосования №30,"ГУО ""УПК Заречковская детский сад – средняя школа""","д.Заречка, ул.Советская, 19",52.0488,25.1097
500,469,10/31,2,Участок для голосования №31,Радостовский сельский Дом культуры,"аг.Радостово, ул.Восточная, 2",51.9672,24.9368
501,469,10/32,2,Участок для голосования №32,"ГУО ""Сварынская базовая школа""","д.Сварынь, ул.Ленина, 101",51.9676,25.0331
502,469,10/33,2,Участок для голосования №33,Хомский сельский Дом культуры,"аг.Хомск, ул.Ленина, 1",52.3326,25.2286
503,469,10/34,2,Участок для голосования №34,Гошевский Дом фольклора,"д.Гошево, ул.Кирова, 41",52.2928,25.2287
504,469,10/35,2,Ивановский - Восточный участок для голосования №35,"государственное учебно- спортивное учреждение ""Ивановская детско-юношеская спортивная школа""","г.Иваново, ул.Советская, 24",52.1509,25.5451
505,469,10/36,2,Ивановский - Советский участок для голосования №36,"ГУО ""СШ №3 г.Иваново""","г.Иваново, ул.Советская, 26",52.1501,25.5445
506,469,10/37,2,Ивановский- Центральный участок для голосования №37,"государственное учреждение культуры ""Ивановский р-нный Центр культуры и народных традиций""","г.Иваново, ул.Советская, 50А",52.1475,25.5338
507,469,10/38,2,Ивановский- Ленинский участок для голосования №38,"ГУО ""Средняя школа №2""","г.Иваново, ул.Ленина, 97",52.14,25.5364
508,469,10/39,2,Ивановский- Железнодорожный участок для голосования №39,"ОАО ""Ивановский райагросервис""","г.Иваново, ул.Комарова, 15",52.1343,25.5396
509,469,10/40,2,Ивановский - Фрунзенский участок для голосования №40,"ГУО ""Средняя школа №4""","г.Иваново, ул.Советская, 78",52.1442,25.5246
510,469,10/41,2,Ивановский- Больничный участок для голосования №41,"УЗ ""Ивановская ЦРБ""","г.Иваново, ул.Комарова, 4",52.1339,25.5398
511,469,10/42,2,Бродницкий участок для голосования №42,сельский Дом культуры аг.Бродница,"аг.Бродница, ул.Ленина, 46",52.1272,25.6855
512,469,10/43,2,Яечковичский участок для голосования №43,сельский Дом культуры аг.Яечковичи,"аг.Яечковичи, ул.Советская, 56",52.0771,25.6729
513,469,10/44,2,Потаповичский участок для голосования №44,"ГУО ""Потаповичский учебно-педагогический комплекс детский сад – базовая школа""","д.Потаповичи, ул.Школьная, 2",52.0591,25.6659
514,469,10/45,2,Горбахский участок для голосования №45,сельский Дом культуры аг.Горбаха,"аг.Горбаха, ул.Советская, 105А",52.0956,25.3654
515,469,10/46,2,Снитовский участок для голосования №46,сельский Дом культуры аг.Снитово,"аг.Снитово, ул.Ленинская, 95А",52.1291,25.4468
516,469,10/47,2,Глинненский участок для голосования №47,"фельдшерско- акушерский пункт УЗ ""Ивановская ЦРБ""","д.Глинно, ул.Советская, 1",52.021448,25.42098
517,469,10/48,2,Вороцевичский участок для голосования №48,"ГУО ""Вороцевичский учебно-педагогический комплекс детский сад – средняя школа""","д.Вороцевичи, ул.Пушкинская, 4Б",52.1084,25.3918
518,469,10/49,2,Лясковичский участок для голосования №49,административное здание Лясковичского сельского исполнительного комитета,"д.Лясковичи, пл.Максима Горького, 1",52.167,25.55
519,469,10/50,2,Дружиловичский участок для голосования №50,сельский Дом культуры аг.Дружиловичи,"аг.Дружиловичи, ул.Октябрьская, 55",52.237,25.5552
520,469,10/51,2,Ляховичский участок для голосования №51,сельский Дом культуры д.Ляховичи,"д.Ляховичи, ул.Веселая, 1",53.039,26.2639
521,469,10/52,2,Молодовский участок для голосования №52,сельский Дом культуры аг.Молодово,"аг.Молодово, ул.Новая, 1",52.2774,25.6869
522,469,10/53,2,Достоевский участок для голосования №53,сельский Дом культуры аг.Достоево,"аг.Достоево, ул.Первомайская, 1",52.2327,25.6807
523,469,10/54,2,Полкотичский участок для голосования №54,"сельский клуб, д.Полкотичи","д.Полкотичи, ул.Школьная, 9",52.2258,25.8227
524,469,10/55,2,Мотольский –Центральный участок для голосования №55,сельский Дом культуры аг.Мотоль,"аг.Мотоль, пл.Ленина, 1А",52.316935,25.610043
525,469,10/56,2,Мотольский-Советский участок для голосования №56,"ГУО ""Мотольский учебно-педагогический комплекс детский сад – средняя школа""","аг.Мотоль, ул.Ворошилова, 114",52.315432,25.585405
526,469,10/57,2,Мотольский –Больничный участок для голосования №57,"Мотольская участковая больница УЗ ""Ивановская ЦРБ""","аг.Мотоль, ул.Братьев Миховичей, 40",52.3166,25.5748
527,469,10/58,2,Тышковичский участок для голосования №58,сельский Дом культуры аг.Тышковичи,"аг.Тышковичи, ул.Объездная, 24",52.3468,25.6267
528,469,10/59,2,Мохровский участок для голосования №59,сельский Дом культуры д.Мохро,"д.Мохро, ул.Ленина, 27",51.9788,25.5591
529,469,10/60,2,Завышанский участок для голосования №60,"Завышанское лесничество ГЛХУ ""Пинский лесхоз""","д.Завышье, ул.Завышанская,6",52.003354,25.689216
530,469,10/61,2,Санаторный участок для голосования №61,"филиал ""Санаторий ""Алеся"" ОАО ""Санаторно-курортная организация ""Брестагроздравница""","д.Завышье, ул .Завышанская, 3",52.000728,25.68395
531,469,10/62,2,Одрижинский участок для голосования №62,сельский Дом культуры аг.Одрижин,"аг.Одрижин, ул.Интернациональная, 2",51.9758,25.4621
532,469,10/63,2,Залядынский участок для голосования №63,сельский Дом культуры д.Залядынье,"д.Залядынье, ул.Ленина, 27А",51.9906,25.3668
533,469,10/64,2,Опольский участок для голосования №64,административное здание Опольского сельского исполнительного комитета,"аг .Ополь, пл.Победы, 1",52.3254,25.4386
534,469,10/65,2,Псыщевский участок для голосования №65,сельский Дом культуры аг.Псыщево,"аг.Псыщево, ул.Калинина, 150",52.2975,25.4692
535,469,10/66,2,Рудский участок для голосования №66,сельский Дом культуры аг.Рудск,"аг.Рудск, ул.60 лет Октября, 12",52.0793,25.5582
536,469,10/67,2,Крытышинский участок для голосования №67,сельский Дом культуры аг.Крытышын,"аг.Крытышин, ул.Советская, 11",52.0782,25.4779
537,469,10/68,2,Гневчицкий участок для голосования №68,здание отдела по образованию Ивановского райисполкома,"д.Гневчицы, ул.Пионерская,14",52.0394,25.5209
538,469,10/69,2,Сушанский участок для голосования №69,"ГУО ""Ивановский р-нный центр детско-юношеского туризма и краеведения""","д.Сухое, ул.Школьная, 5",52.0947,25.6017
539,469,10/70,2,Стрельненский участок для голосования №70,"филиал традиционной культуры ""Дом травника"" государственного учреждения культуры ""Мотольский музей народного творчества""","д.Стрельно, ул.Советская, 2а",52.1805,25.4199
540,469,10/71,2,Сочивковский участок для голосования №71,сельский Дом культуры аг.Сочивки,"аг.Сочивки, ул.Кирова, 16",52.2335,25.4448
541,10000,11,1,ОИК 11,административное здание Ивацевичского РИК кабинет 311,"г.Ивацевичи, ул.Ленина, 44",52.7093636,25.3393908
542,541,11/1,2,Участок для голосования №1,"ОАО ""Ивацевичдрев""","г.Ивацевичи, ул.Заводская, 4",52.7071,25.3443
543,541,11/2,2,Участок для голосования №2,Ивацевичский городской Дом культуры,"г.Ивацевичи, ул.Ленина, 57",52.713,25.3431
544,541,11/3,2,Участок для голосования №3,"ГУО ""Лицей Ивацевичского района""","г.Ивацевичи, ул.Коммунистическая, 29",52.7147,25.3352
545,541,11/4,2,Участок для голосования №4,"ГУО ""Средняя школа №3 г.Ивацевичи""","г.Ивацевичи, ул.Северная, 2",52.7075,25.3256
546,541,11/5,2,Участок для голосования №5,"УО ""Ивацевичский государственный профессиональный лицей сельскохозяйственного производства""","г.Ивацевичи, ул.Механизаторов, 7",52.7146,25.3227
547,541,11/6,2,Участок для голосования №6,Ивацевичская районная организационная структура ДОСААФ,"г.Ивацевичи, ул.Свердлова, 5",52.72,25.3466
548,541,11/7,2,Участок для голосования №7,"учреждение здравоохранения ""Ивацевичская ЦРБ""","г.Ивацевичи, ул.Толочко, 10",52.7194,25.3507
549,541,11/8,2,Участок для голосования №8,Коссовский городской Дом культуры,"г.Коссово, ул.Тихая,7",52.7588,25.1525
550,541,11/9,2,Участок для голосования №9,Телеханский центр культуры и досуга,"г.п.Телеханы, ул.Ленина, 17",52.51729,25.844569
551,541,11/10,2,Участок для голосования №10,"ГУО ""Телеханская средняя школа""","г.п.Телеханы, ул.1 Мая, 2",52.51445,25.846342
552,541,11/11,2,Участок для голосования №11,Вулька-Телеханский сельский клуб,"д.Вулька-Телеханская, ул.Первомайская, 15",52.5397,25.8749
553,541,11/12,2,Участок для голосования №12,Гортольский сельский дом культуры,"аг.Гортоль, ул.Советская, 4",52.5023,25.9068
554,541,11/13,2,Участок для голосования №13,Соминский сельский клуб,"д.Сомино, ул.Озерная, 3",52.5391,25.923
555,541,11/14,2,Участок для голосования №14,бывшее здание сельисполкома,"д.Выгонощи, ул.Набережная, 15",52.6172,25.9172
556,541,11/15,2,Участок для голосования №15,Бытенский сельский Дом культуры,"аг.Бытень, ул.Советская, 90",52.8718,25.5019
557,541,11/16,2,Участок для голосования №16,Погорский сельский клуб,"д.Наливки, ул.Центральная,1",52.9175,25.5541
558,541,11/17,2,Участок для голосования №17,Вольковский сельский исполнительный комитет,"д.Волька, ул.Советская, 2",52.7837,25.6386
559,541,11/18,2,Участок для голосования №18,Могилицкий сельский Дом культуры,"д.Могилицы, ул.Советская, 33",52.7779,25.5971
560,541,11/19,2,Участок для голосования №19,Добромысленский сельский клуб,"д.Добромысль ул.Мира,1 б",52.8245,25.7084
561,541,11/20,2,Участок для голосования №20,Селецкий сельский клуб,"д.Селец ул.Советская, 2",52.585,24.8649
562,541,11/21,2,Участок для голосования №21,Домановский сельский Дом культуры,"аг.Доманово, ул.Партизанская, 37",52.8297,25.4819
563,541,11/22,2,Участок для голосования №22,"ГУО ""Воленская средняя школа""","аг.Воля ул.Молодежная, 2а",52.6597,25.3268
564,541,11/23,2,Участок для голосования №23,"ГУК ""Ходаковский сельский дом культуры""","аг.Ходаки ул.Михнюка, 4",52.5851,25.3815
565,541,11/24,2,Участок для голосования №24,"ГУК ""Вулька-Обровский сельский дом культуры""","аг.Вулька-Обровская ул.Советская, 7",52.5802,25.4898
566,541,11/25,2,Участок для голосования №25,Квасевичский сельский Дом культуры,"аг.Квасевичи, ул.Коммунистическая,6",52.7526,25.0775
567,541,11/26,2,Участок для голосования №26,"ГУО ""Заполянский детский сад-средняя школа""","д.Заполье, ул.Школьная, 32",52.7033,25.1459
568,541,11/27,2,Участок для голосования №27,Любищицкий сельский Дом культуры,"аг.Любищицы, ул.Шоссейная, 34",52.7507,25.422
569,541,11/28,2,Участок для голосования №28,Милейковский сельский Дом культуры,"аг.Милейки, ул.Центральная,18",52.7867,25.0786
570,541,11/29,2,Участок для голосования №29,"ОАО ""Ивацевичиагротехсервис"" сельхозучасток ""Гривда""","д.Гривда, ул.Новая, 18",52.7441,25.3214
571,541,11/30,2,Участок для голосования №30,Милейковский сельский исполнительный комитет,"д.Бусяж, ул.Центральная, 1",52.8215,25.1422
572,541,11/31,2,Участок для голосования №31,Центр культуры народного творчества,"аг.Оброво, б-р Первомайский, 7",52.5119,25.5626
573,541,11/32,2,Участок для голосования №32,Омельнянсий сельский Дом культуры,"аг.Омельная, ул.Мичуринская, 27",52.478638,25.738735
574,541,11/33,2,Участок для голосования №33,"ГУО ""Подстаринская средняя школа""","аг.Подстаринь, ул.Школьная, 49",52.769,25.3556
575,541,11/34,2,Участок для голосования №34,"Борецкое лесничество ГЛХУ ""Ивацевичский лесхоз""","д.Кушнеры, ул.Советская, 34",52.0942,23.6925
576,541,11/35,2,Участок для голосования №35,Речковский сельский исполнительный комитет,"д.Речки, ул.Парковая, 1",52.4585,26.0431
577,541,11/36,2,Участок для голосования №36,"ГУО ""Крайская базовая школа"".","д.Краи, ул.Советская, 2а",52.492475,25.994456
578,541,11/37,2,Участок для голосования №37,"здание бывшего ГУО ""Руднянская базовая школа""","д.Рудня, ул.Первомайская, 5",52.4633,26.1165
579,541,11/38,2,Участок для голосования №38,Святовольский сельский Дом культуры,"аг.Святая Воля, ул.Шоссейная, 46В",52.534,25.6893
580,541,11/39,2,Участок для голосования №39,"ГУО ""Великогатская средняя школа""","д.Великая Гать, ул.Гордейчика, 1А",52.5504,25.6572
581,541,11/40,2,Участок для голосования №40,"ГУО ""Стайковская средняя школа Ивацевичского района""","д.Стайки, ул.Школьная , 6",52.7041,25.2824
582,541,11/41,2,Участок для голосования №41,"ГУО ""Гощевская средняя школа""","аг.Гощево, ул.Центральная, 206а",52.6898,25.2104
583,541,11/42,2,Участок для голосования №42,"ГУО ""Зеленоборская средняя школа""","пос.Зеленый Бор, ул.Центральная , 4а",54.0135,28.4771
584,541,11/43,2,Участок для голосования №43,Яглевичский сельский исполнительный комитет,"д.Яглевичи, ул.Центральная, 44А",52.6921,25.3787
585,541,11/44,2,Участок для голосования №44,"ГЛХУ ""Ивацевичский лесхоз""","г.Ивацевичи, ул.Лесная, 5",52.7016,25.3388
586,541,11/45,2,Участок для голосования №45,"ГУК ""Белоозерский Дом культуры""","г.Белоозерск, ул.Ленина, 34",52.4692,25.1787
587,541,11/46,2,Участок для голосования №46,"ГУО ""Гимназия г.Белоозерска""","г.Белоозерск, ул.Строителей, 20",52.4695,25.1705
588,541,11/47,2,Участок для голосования №47,"ГУО ""Средняя школа №3 г.Белоозерска""","г.Белоозерск, пр.Мира, 7",52.4757,25.1744
589,541,11/48,2,Участок для голосования №48,"Общежитие ГУПП ""Березовское ЖКХ""","г.Белоозерск, пр.Мира, 18",52.475,25.1782
590,541,11/49,2,Участок для голосования №49,"ГУО ""Белоозерская детская школа искусств""","г.Белоозерск, ул.Гагарина, 21",52.4681,25.1814
591,541,11/50,2,Участок для голосования №50,"Филиал №29 Хрисовская сельская библиотека ГУК ""Березовская районная библиотечная система""","д.Хрисо, ул.Красногвардейская, 9а",52.4499,25.2263
592,541,11/51,2,Участок для голосования №51,"Административное здание сельскохозяйственного унитарного предприятия ""Борковское""","аг.Борки, ул.Терешковой, 4",52.3622,24.8607
593,541,11/52,2,Участок для голосования №52,Административное здание Здитовского сельисполкома,"аг.Здитово, ул.Ленина, 50",52.4757,25.0029
594,541,11/53,2,Участок для голосования №53,"Филиал №24 Шилинский сельский клуб ГУК ""Березовская районная клубная система""","д.Шилин, ул.Молодежная, 10",52.4447,25.025
595,541,11/54,2,Участок для голосования №54,"Филиал №7 Междулесский сельский Дом культуры ГУК ""Березовская районная клубная система""","аг.Междулесье, ул.Ленина, 22",52.3868,25.0175
596,541,11/55,2,Участок для голосования №55,"ГУО ""Первомайский учебно-педагогический комплекс ясли-сад-средняя школа""","аг.Первомайская, ул.Школьная, 4",52.5298,24.8908
597,541,11/56,2,Участок для голосования №56,"Филиал №4 Кабаковский сельский Дом культуры ГУК ""Березовская районная клубная система""","аг.Кабаки, ул.Совхозная, 20",52.4981,24.7639
598,541,11/57,2,Участок для голосования №57,"Филиал №10 Песковский сельский Дом культуры ГУК ""Березовская районная клубная система""","аг.Пески, ул.Советская, 5",52.49752,25.190128
599,541,11/58,2,Участок для голосования №58,"Общежитие ОАО ""Песковское""","аг.Пески, ул.Мира, 2",52.492518,25.213405
600,541,11/59,2,Участок для голосования №59,"Филиал №6 Маревильский сельский Дом культуры ГУК ""Березовская районная клубная система""","аг.Маревиль, ул.Советская, 9",52.4207,24.8879
601,541,11/60,2,Участок для голосования №60,"Филиал №12 Ревятичский сельский Дом культуры ГУК ""Березовская районная клубная система""","аг.Ревятичи, ул.Садовая, 12",52.4403,24.849
602,541,11/61,2,Участок для голосования №61,"Филиал №25 Ястребельский сельский клуб ГУК ""Березовская районная клубная система""","д.Ястребель, ул.Советская, 19",52.3936,24.9246
603,541,11/62,2,Участок для голосования №62,Административное здание Соколовского сельисполкома,"аг.Соколово, ул.Школьная, 4",52.5421,25.0753
604,541,11/63,2,Участок для голосования №63,"ГУО ""Бронногорский УПК ясли-сад-базовая школа""","д.Бронная Гора, ул.Первомайская, 1",52.6107,25.0819
605,541,11/64,2,Участок для голосования №64,"Филиал №17 Стригинский сельский Дом культуры ГУК ""Березовская районная клубная система""","аг.Стригинь, ул.Кирова, 58а",52.493,25.0405
606,541,11/65,2,Участок для голосования №65,"Филиал №16 Споровский Центр культуры и досуга ГУК ""Березовская районная клубная система""","аг.Спорово, ул.Ленина, 12",52.4251,25.32
607,541,11/66,2,Участок для голосования №66,"Филиал №3 Здитовский сельский Дом культуры ГУК ""Березовская районная клубная система""","д.Здитово, ул.Советская, 11",52.4757,25.0029
608,10000,12,1,ОИК 12,административное здание Кобринского РИК кабинет 213,"г.Кобрин, пл.Ленина, 3",52.2082714,24.3540326
609,608,12/1,2,Избирательный участок №1,"помещение районного физкультурно-оздоровительного учреждения ""Атлант""","г.Кобрин,ул.Дзержинского, 78",52.1925,24.3365
610,608,12/2,2,Избирательный участок №2,"ГУО ""Средняя школа №8 г.Кобрина"" 1 этаж","г.Кобрин, ул.Парковая, 2",52.1971,24.3451
611,608,12/3,2,Избирательный участок №3,"ГУО ""Средняя школа №9 г.Кобрина"" 1 этаж блок ""Б"" (левое крыло)","г.Кобрин, ул.Дружбы, 33/1",52.195,24.353
612,608,12/4,2,Избирательный участок №4,"ГУО ""Средняя школа №9 г.Кобрина"" 1 этаж блок ""А"" (правое крыло)","г.Кобрин, ул.Дружбы, 33/1",52.195,24.353
613,608,12/5,2,Избирательный участок №5,"здание мастерских УО ""Кобринский государственный профессиональный лицей сферы обслуживания""","г.Кобрин, ул.Дзержинского, 81",52.1983,24.3455
614,608,12/6,2,Избирательный участок №6,"ГУО ""Средняя школа №8 г.Кобрина"" 2 этаж","г.Кобрин, ул.Парковая, 2",52.1971,24.3451
615,608,12/7,2,Избирательный участок №7,"УО ""Кобринский государственный профессиональный лицей сферы обслуживания""","г.Кобрин, ул.Дзержинского, 81",52.1983,24.3455
616,608,12/8,2,Избирательный участок №8,"ГУО ""Средняя школа №7 г.Кобрина""","г.Кобрин, ул.Дзержинского, 55",52.2029,24.3443
617,608,12/9,2,Избирательный участок №9,"ГУ ""Комплексная специализированная детско-юношеская школа олимпийского резерва Кобринского района""","г.Кобрин, ул.Дзержинского, 60",52.2036,24.342
618,608,12/10,2,Избирательный участок №10,"филиал ""Стройтрест №33"" ОАО ""Строительный трест №8""","г.Кобрин, ул.Советская, 137",52.207649,24.326588
619,608,12/11,2,Избирательный участок №11,"помещение УЗ ""Кобринская центральная районная больница""","г.Кобрин, ул.Советская, 132",52.2123,24.3219
620,608,12/12,2,Избирательный участок №12,"ГУО ""Средняя школа №1 г.Кобрина""","г.Кобрин, ул.Советская, 94",52.2111,24.3401
621,608,12/13,2,Избирательный участок №13,"ГУО ""Гимназия г.Кобрина""","г.Кобрин, ул.Пушкина, 4",52.2098,24.3526
622,608,12/14,2,Избирательный участок №14,"УО ""Кобринский государственный политехнический колледж""","г.Кобрин, пл.Ленина, 4",52.2095,24.353
623,608,12/15,2,Избирательный участок №15,"УК ""Кобринский Дворец культуры""","г.Кобрин, ул.Ленина, 4",52.2103,24.3558
624,608,12/16,2,Избирательный участок №16,"ГУО ""Средняя школа №2 г.Кобрина""","г.Кобрин, ул.Первомайская, 91",52.1616,24.4544
625,608,12/17,2,Избирательный участок №17,"ГУО ""Средняя школа №3 г.Кобрина"" 1 этаж","г.Кобрин, ул.Пролетарская, 91",52.2189,24.3462
626,608,12/18,2,Избирательный участок №18,"ГУО ""Средняя школа №3 г.Кобрина"" 2 этаж","г.Кобрин, ул.Пролетарская, 91",52.2189,24.3462
627,608,12/19,2,Избирательный участок №19,"ГУО ""Средняя школа №6 г.Кобрина""","г.Кобрин, ул.Ленина, 71",52.22,24.3613
628,608,12/20,2,Избирательный участок №20,"ГУО ""Детский сад – средняя школа №4 г.Кобрина""","г.Кобрин, ул.Ленина, 167",52.2303,24.3788
629,608,12/21,2,Избирательный участок №21,"помещение Батчинского Дома культуры ГУК ""Кобринская районная клубная система""","аг.Батчи, Садовая, 12",52.2427,24.2305
630,608,12/22,2,Избирательный участок №22,"актовый зал ОАО ""Кобринская птицефабрика""","г.Кобрин, ул.Северная, 99",52.227,24.3081
631,608,12/23,2,Избирательный участок №23,"ГУО ""Буховичская средняя школа""","аг.Буховичи, ул.Центральная, 2/1",52.2787,24.4284
632,608,12/24,2,Избирательный участок №24,"административное здание филиала ""Передвижная механизированная колонна №52"" государственного унитарного производственного предприятия ""Брестводстрой""","д.Еремичи, ул.Центральная, 20",52.2849,24.4489
633,608,12/25,2,Избирательный участок №25,"ГУО ""Минянская средняя школа""","д.Минянка, ул.Школьная, 9",52.3073,24.4427
634,608,12/26,2,Избирательный участок №26,"административное здание ОАО ""Агро-Кобринское""","д.Именин, ул.Первомайская, 10",52.2617,24.3603
635,608,12/27,2,Избирательный участок №27,"филиал КУП ""Брестоблдорстрой"" Кобринское дорожное ремонтно-строительное управление №201","г.Кобрин, ул.Калинина,3",52.233174,24.383131
636,608,12/28,2,Избирательный участок №28,"Городецкий клуб ГУК ""Кобринская районная клубная система""","аг.Городец, ул.Советская, 29",52.0955,23.6901
637,608,12/29,2,Избирательный участок №29,"административное здание ОАО ""Грушевский ремонтно-механический завод""",д.Грушево,52.2412,24.7272
638,608,12/30,2,Избирательный участок №30,"помещение Октябрьского Дома культуры ГУК ""Кобринская районная клубная система""","д.Октябрь, ул.Красногвардейская, 3",52.2433,24.6017
639,608,12/31,2,Избирательный участок №31,"Кустовичский клуб ГУК ""Кобринская районная клубная система""","д.Кустовичи, ул.Южная, 4",52.2913,24.61
640,608,12/32,2,Избирательный участок №32,"Онисковичский Дом культуры ГУК ""Кобринская районная клубная система""","аг.Онисковичи, ул.Заречная, 18",52.1263,24.7154
641,608,12/33,2,Избирательный участок №33,"ГУО ""Осовский учебно-педагогический комплекс детский сад-базовая школа""","аг.Оса, ул.Сеткова, 17",51.9175,24.4846
642,608,12/34,2,Избирательный участок №34,"Дивинский центр культуры и досуга ГУК ""Кобринская районная клубная система""","аг.Дивин, ул.Ленина, 81",51.9577,24.5747
643,608,12/35,2,Избирательный участок №35,"ГУО ""Дивинский детский дом""","аг.Дивин, ул.Ленина, 86",51.9582,24.5735
644,608,12/36,2,Избирательный участок №36,магазин Кобринского районного потребительского общества,"аг.Дивин, ул.Советская, 241А",51.955496,24.56756
645,608,12/37,2,Избирательный участок №37,"Ореховский Дом культуры ГУК ""Кобринская районная клубная система""","аг.Ореховский, ул.Ленина, 9",51.9823,24.6723
646,608,12/38,2,Избирательный участок №38,"Леликовский Дом культуры ГУК ""Кобринская районная клубная система""","д.Леликово, ул.Советская, 37",51.9211,24.7034
647,608,12/39,2,Избирательный участок №39,"ГУО ""Хабовичская средняя школа""","д.Хабовичи, ул.Кутузова, 31",52.0615,24.4813
648,608,12/40,2,Избирательный участок №40,магазин Кобринского районного потребительского общества,"д.Быстрица, ул.Северная, 14",52.2208,24.4127
649,608,12/41,2,Избирательный участок №41,"Залесский центр культуры и досуга ГУК ""Кобринская районная клубная система""","д.Залесье, ул.Суворова, 19",52.2177,24.4758
650,608,12/42,2,Избирательный участок №42,"административное здание государственного сельскохозяйственного учреждения ""Кобринская сортоиспытательная станция""","д.Закросница, ул.Школьная, 11",52.2397,24.5145
651,608,12/43,2,Избирательный участок №43,"Магдалинский Дом культуры ГУК ""Кобринская районная клубная система""","д.Магдалин, ул.Центральная, 21а",52.18775,24.390533
652,608,12/44,2,Избирательный участок №44,"ГУО ""Киселевецкий детский сад – средняя школа""","д.Рыбна, ул.Центральная, 19 а",52.170818,24.456613
653,608,12/45,2,Избирательный участок №45,"ГУО ""Болотская базовая школа""","д.Болота, ул.Ленина, 57",52.140161,24.520591
654,608,12/46,2,Избирательный участок №46,"помещение Новоселковского Дома культуры ГУК ""Кобринская районная клубная система""","аг.Новоселки, ул.Советская, 6",53.5133,28.1019
655,608,12/47,2,Избирательный участок №47,"Бельский Дом культуры ГУК ""Кобринская районная клубная система""","д.Бельск, ул.Ленина, 36",52.0071,24.4149
656,608,12/48,2,Избирательный участок №48,"ГУО ""Верхолесский учебно-педагогический комплекс ясли-сад – средняя школа""","д.Верхолесье, ул.Чкалова 49",52.0828,24.304
657,608,12/49,2,Избирательный участок №49,"помещение Остромичского центра культуры и досуга ГУК ""Кобринская районная клубная система""","аг.Остромичи, ул.Московская, 1",52.2754,24.4705
658,608,12/50,2,Избирательный участок №50,"ГУО ""Запрудская базовая школа""","д.Запруды, ул.Школьная 7а",52.33,24.577
659,608,12/51,2,Избирательный участок №51,"Шеметовский Дом культуры ГУК ""Кобринская районная клубная система""","д.Шеметовка, ул.Ленина, 22",52.3307,24.6521
660,608,12/52,2,Избирательный участок №52,"помещение Лукского Дома культуры ГУК ""Кобринская районная клубная система""","аг.Лука, ул.22 апреля, 1",52.3758,24.6825
661,608,12/53,2,Избирательный участок №53,"Повитьевский Дом культуры ГУК ""Кобринская районная клубная система""","аг.Повитье, ул.Школьная, 3",51.9861,24.7586
662,608,12/54,2,Избирательный участок №54,"помещение Тевельского клуба ГУК ""Кобринская районная клубная система""","д.Тевли, ул.Северная, 25 а",52.3368,24.2537
663,608,12/55,2,Избирательный участок №55,"фельдшерско-акушерский пункт УЗ ""Кобринская центральная районная больница""","д.Глинянки, ул.Центральная, 33/1",52.3093,24.1883
664,608,12/56,2,Избирательный участок №56,"помещение Стриговского центра культуры и досуга государственного учреждения культуры ""Кобринская районная клубная система""","аг.Стригово, ул.Советская, 24 а",52.3001,24.2756
665,608,12/57,2,Избирательный участок №57,"помещение Хидринского центра культуры и досуга ГУК ""Кобринская районная клубная система""","аг.Хидры, ул.Ленина, 11",52.1472,24.3707
666,608,12/58,2,Избирательный участок №58,"ГУО ""Патриковские ясли-сад""","д.Патрики, ул.Центральная, 27",52.184367,24.313099
667,608,12/59,2,Избирательный участок №59,"Песковский Дом культуры ГУК ""Кобринская районная клубная система""","аг.Пески, ул.Луговая, 2",52.187,24.2415
668,608,12/60,2,Избирательный участок №60,"Корчицкий клуб ГУК ""Кобринская районная клубная система""","д.Корчицы, ул.Победы, 35",52.1085,24.3793
669,10000,13,1,ОИК 13,административное здание Лунинецкого РИК кабинет 203,"г.Лунинец, ул.Красная, 1",52.2455919,26.797328
670,669,13/1,2,Участок для голосования №1,"Административный корпус ОСП ""ОРС станции Лунинец"" ОАО ""ДОРОРС""","г.Лунинец, ул.Давыдова, 19",52.2458,26.8477
671,669,13/2,2,Участок для голосования №2,"ГУО ""Средняя школа №3 г.Лунинца""","г.Лунинец, ул.Макаренко, 3",52.2453,26.8142
672,669,13/3,2,Участок для голосования №3,Дом культуры железнодорожников,"г.Лунинец, ул.Привокзальная, 4",52.2436,26.804822
673,669,13/4,2,Участок для голосования №4,"ГУО ""Средняя школа №1 г.Лунинца""","г.Лунинец, ул.Гагарина, 13",52.2432,26.8036
674,669,13/5,2,Участок для голосования №5,"ГУ ""Специализированная детско-юношеская школа олимпийского резерва Лунинецкого райисполкома""","г.Лунинец, ул.Советская, 20",52.2565,26.797
675,669,13/6,2,Участок для голосования №6,"ГУО ""Средняя школа №2 г.Лунинца""","г.Лунинец, ул.Лисовича, 5",52.255,26.7949
676,669,13/7,2,Участок для голосования №7,"УО ""Лунинецкий государственный политехнический профессионально-технический колледж""","г.Лунинец, ул.Чехова, 10а",52.2561,26.7949
677,669,13/8,2,Участок для голосования №8,"ГУО ""Средняя школа №4 г.Лунинца""","г.Лунинец, ул.Красная, 140",52.2583,26.7957
678,669,13/9,2,Участок для голосования №9,"Участок бытового обслуживания КУМПП ЖКХ ""Лунинецкое ЖКХ""","г.Лунинец, ул.Красная, 115",52.2542,26.7973
679,669,13/10,2,Участок для голосования №10,"ГУО ""Гимназия г.Лунинца""","г.Лунинец, ул.Чапаева, 54",52.2507,26.8293
680,669,13/11,2,Участок для голосования №11,"ГУ ""Детско-юношеская спортивная школа г.Лунинца""","г.Лунинец, ул.Красная, 160б",52.2656,26.7744
681,669,13/12,2,Участок для голосования №12,"УЗ ""Лунинецкая центральная районная больница""","г.Лунинец, ул.М.Богдановича, 4",52.2565,26.797
682,669,13/13,2,Участок для голосования №13,Боровецкий сельский клуб,"д.Боровцы, ул.Комсомольская, 24а",54.0369,27.6073
683,669,13/14,2,Участок для голосования №14,Дятловичский центральный сельский Дом культуры,"аг.Дятловичи, ул.Коммунистическая, 5",52.334902,26.830815
684,669,13/15,2,Участок для голосования №15,Деревообрабатывающий цех Дятловичи,"д.Станция Дятловичи, ул.Восточная, 5л",52.35575,26.788884
685,669,13/16,2,Участок для голосования №16,Вульковский-1 Центр культуры и народного творчества,"аг.Вулька-1 ул.Новая, 21",52.2771,26.7104
686,669,13/17,2,Участок для голосования №17,Полесский сельский Дом культуры,"аг.Полесский, ул.Октябрьская, 10",52.2954,26.6683
687,669,13/18,2,Участок для голосования №18,Лунинский сельский исполнительный комитет,"аг.Лунин, ул.Иркутско-Пинской дивизии, 31б",52.3046,26.6395
688,669,13/19,2,Участок для голосования №19,"ГУО ""Лобчанская ясли-сад-базовая школа""","аг.Лобча, ул.Школьная, 1",52.2978,26.5273
689,669,13/20,2,Участок для голосования №20,"ГУО ""Дубовская средняя школа""","д.Дубовка, ул.Советская, 50",52.092,23.6937
690,669,13/21,2,Участок для голосования №21,Богдановский сельский Дом культуры,"аг.Богдановка, ул.Советская, 149",52.367,26.4506
691,669,13/22,2,Участок для голосования №22,Бостынский сельисполком,"аг.Бостынь, ул.Октябрьская, 29",52.3914,26.7571
692,669,13/23,2,Участок для голосования №23,"ГУО ""Велутская средняя школа""","аг.Велута, ул.Школьная, 9",52.4605,26.7879
693,669,13/24,2,Участок для голосования №24,фельдшерско-акушерский пункт д.Люща,"д.Люща, ул.Зелёная, 1",52.4524,26.7138
694,669,13/25,2,Участок для голосования №25,Большечучевичский сельский Дом культуры,"аг.Большие Чучевичи, ул.Советская, 6",52.5803,26.859
695,669,13/26,2,Участок для голосования №26,Фельдшерско-акушерский пункт д.Малые Чучевичи,"д.Малые Чучевичи, ул.Ленина, 27а",52.5933,26.8914
696,669,13/27,2,Участок для голосования №27,Фельдшерско-акушерский пункт д.Боровики,"д.Боровики, ул.Ленина, 18",53.8989,27.5605
697,669,13/28,2,Участок для голосования №28,Вульковский сельский дом культуры,"аг.Вулька-2 ул.Советская, 33",52.3469,26.9879
